{
  "metadata": {
    "exported_at": "2025-09-14T06:47:13.824283",
    "total_facilities": 8982,
    "total_population": 2952080,
    "description": "ICE Detention Facilities - Population Data",
    "source": "TRAC Reports",
    "source_url": "https://tracreports.org/immigration/detentionstats/facilities.json",
    "last_updated": "2025-09-14 06:47:13 UTC",
    "geocoded_facilities": 8982,
    "skipped_facilities": 7
  },
  "facilities": [
    {
      "name": "ADAMS COUNTY DET CENTER",
      "latitude": 31.5604076,
      "longitude": -91.403171,
      "address": "NATCHEZ, MS, 39120",
      "population_count": 2172,
      "facility_type": "DIGSA"
    },
    {
      "name": "ADELANTO ICE PROCESSING CENTER",
      "latitude": 34.5599467,
      "longitude": -117.4421505,
      "address": "ADELANTO, CA, 92301",
      "population_count": 527,
      "facility_type": "CDF"
    },
    {
      "name": "ALAMANCE COUNTY DETENTION FACILITY",
      "latitude": 36.0690258,
      "longitude": -79.4005756,
      "address": "GRAHAM, NC, 27253",
      "population_count": 24,
      "facility_type": "IGSA"
    },
    {
      "name": "ALLEGANY COUNTY JAIL",
      "latitude": 42.2231241,
      "longitude": -78.0344506,
      "address": "BELMONT, NY, 14813",
      "population_count": 6,
      "facility_type": "IGSA"
    },
    {
      "name": "ALLEN PARISH PUBLIC SAFETY COMPLEX",
      "latitude": 30.6201984,
      "longitude": -92.7626462,
      "address": "OBERLIN, LA, 70655",
      "population_count": 172,
      "facility_type": "IGSA"
    },
    {
      "name": "BAKER COUNTY SHERIFF DEPT.",
      "latitude": 30.2821807,
      "longitude": -82.1220569,
      "address": "MACCLENNY, FL, 32063",
      "population_count": 261,
      "facility_type": "IGSA"
    },
    {
      "name": "SOUTH LOUISIANA ICE PROCESSING CENTER",
      "latitude": 30.4875023,
      "longitude": -92.5831512,
      "address": "BASILE, LA, 70515",
      "population_count": 886,
      "facility_type": "DIGSA"
    },
    {
      "name": "BLUEBONNET DETENTION FACILITY",
      "latitude": 32.7564766,
      "longitude": -99.896788,
      "address": "ANSON, TX, 79501",
      "population_count": 968,
      "facility_type": "DIGSA"
    },
    {
      "name": "ATLANTA US PEN",
      "latitude": 33.7544657,
      "longitude": -84.3898151,
      "address": "ATLANTA, GA, 30315",
      "population_count": 86,
      "facility_type": "BOP"
    },
    {
      "name": "BERLIN FED. CORR. INST.",
      "latitude": 44.4800787,
      "longitude": -71.1692439,
      "address": "BERLIN, NH, 3570",
      "population_count": 130,
      "facility_type": "BOP"
    },
    {
      "name": "BROOKLYN MDC",
      "latitude": 40.659735,
      "longitude": -74.0035874,
      "address": "BROOKLYN, NY, 11232",
      "population_count": 22,
      "facility_type": "BOP"
    },
    {
      "name": "HONOLULU FEDERAL DETENTION CENTER",
      "latitude": 21.304547,
      "longitude": -157.855676,
      "address": "HONOLULU, HI, 96819",
      "population_count": 47,
      "facility_type": "BOP"
    },
    {
      "name": "LEAVENWORTH US PENITENTIARY",
      "latitude": 39.3113257,
      "longitude": -94.922759,
      "address": "LEAVENWORTH, KS, 66048",
      "population_count": 39,
      "facility_type": "BOP"
    },
    {
      "name": "MIAMI FEDERAL DETENTION",
      "latitude": 25.7784335,
      "longitude": -80.1932366,
      "address": "MIAMI, FL, 33132",
      "population_count": 230,
      "facility_type": "BOP"
    },
    {
      "name": "FDC PHILADELPHIA",
      "latitude": 39.9527237,
      "longitude": -75.1635262,
      "address": "PHILADELPHIA, PA, 19106",
      "population_count": 61,
      "facility_type": "BOP"
    },
    {
      "name": "BROWARD COUNTY JAIL",
      "latitude": 26.1223084,
      "longitude": -80.1433786,
      "address": "FT.LAUDERDALE, FL, 33301",
      "population_count": 2,
      "facility_type": "IGSA"
    },
    {
      "name": "BUFFALO SERVICE PROCESSING CENTER",
      "latitude": 43.0203148,
      "longitude": -78.2016158,
      "address": "BATAVIA, NY, 14020",
      "population_count": 633,
      "facility_type": "SPC"
    },
    {
      "name": "MESA VERDE ICE PROCESSING CENTER",
      "latitude": 35.3798248,
      "longitude": -119.0061684,
      "address": "BAKERSFIELD, CA, 93301",
      "population_count": 128,
      "facility_type": "CDF"
    },
    {
      "name": "CALIFORNIA CITY CORRECTIONAL CENTER",
      "latitude": 35.1259261,
      "longitude": -117.959868,
      "address": "CALIFORNIA CITY, CA, 93505",
      "population_count": 1,
      "facility_type": "CDF"
    },
    {
      "name": "DESERT VIEW ANNEX",
      "latitude": 34.5599404,
      "longitude": -117.4372813,
      "address": "ADELANTO, CA, 92301",
      "population_count": 422,
      "facility_type": "CDF"
    },
    {
      "name": "CALHOUN COUNTY CORRECTIONAL CENTER",
      "latitude": 42.3192548,
      "longitude": -85.1824269,
      "address": "BATTLE CREEK, MI, 49014",
      "population_count": 158,
      "facility_type": "IGSA"
    },
    {
      "name": "CAROLINE DETENTION FACILITY",
      "latitude": 38.0498524,
      "longitude": -77.3469994,
      "address": "BOWLING GREEN, VA, 22427",
      "population_count": 300,
      "facility_type": "DIGSA"
    },
    {
      "name": "T DON HUTTO DETENTION CENTER",
      "latitude": 30.5728854,
      "longitude": -97.4141053,
      "address": "TAYLOR, TX, 76574",
      "population_count": 429,
      "facility_type": "DIGSA"
    },
    {
      "name": "OTAY MESA DETENTION CENTER",
      "latitude": 32.5765248,
      "longitude": -116.9154777,
      "address": "SAN DIEGO, CA, 92154",
      "population_count": 1383,
      "facility_type": "CDF"
    },
    {
      "name": "CHASE COUNTY JAIL",
      "latitude": 43.4407654,
      "longitude": -103.5762024,
      "address": "COTTONWOOD FALL, KS, 66845",
      "population_count": 107,
      "facility_type": "IGSA"
    },
    {
      "name": "CHIPPEWA COUNTY SSM",
      "latitude": 46.4976734,
      "longitude": -84.3476583,
      "address": "SAULT STE MARIE, MI, 49783",
      "population_count": 33,
      "facility_type": "IGSA"
    },
    {
      "name": "CIBOLA COUNTY CORRECTIONAL CENTER",
      "latitude": 35.1796636,
      "longitude": -107.9078742,
      "address": "MILAN, NM, 87021",
      "population_count": 220,
      "facility_type": "IGSA"
    },
    {
      "name": "COLLIER COUNTY NAPLES JAIL CENTER",
      "latitude": 26.1421976,
      "longitude": -81.7942944,
      "address": "NAPLES, FL, 34112",
      "population_count": 17,
      "facility_type": "IGSA"
    },
    {
      "name": "NORTHWEST ICE PROCESSSING CENTER",
      "latitude": 47.2455013,
      "longitude": -122.438329,
      "address": "TACOMA, WA, 98421",
      "population_count": 1168,
      "facility_type": "CDF"
    },
    {
      "name": "DENVER CONTRACT DETENTION FACILITY",
      "latitude": 39.7405111,
      "longitude": -104.830994,
      "address": "AURORA, CO, 80010",
      "population_count": 1180,
      "facility_type": "CDF"
    },
    {
      "name": "DELANEY HALL DETENTION FACILITY",
      "latitude": 40.7678868,
      "longitude": -74.1596235,
      "address": "NEWARK, NJ, 7105",
      "population_count": 212,
      "facility_type": "CDF"
    },
    {
      "name": "ELOY FEDERAL CONTRACT FACILITY",
      "latitude": 32.7551703,
      "longitude": -111.553493,
      "address": "ELOY, AZ, 85131",
      "population_count": 1401,
      "facility_type": "DIGSA"
    },
    {
      "name": "EL VALLE DETENTION FACILITY",
      "latitude": 26.4814565,
      "longitude": -97.783051,
      "address": "RAYMONDVILLE, TX, 78580",
      "population_count": 854,
      "facility_type": "DIGSA"
    },
    {
      "name": "ELIZABETH CONTRACT DETENTION FACILITY",
      "latitude": 40.6690688,
      "longitude": -74.1836424,
      "address": "ELIZABETH, NJ, 7201",
      "population_count": 297,
      "facility_type": "CDF"
    },
    {
      "name": "EL PASO SERVICE PROCESSING CENTER",
      "latitude": 31.7955926,
      "longitude": -106.3696348,
      "address": "EL PASO, TX, 79925",
      "population_count": 823,
      "facility_type": "SPC"
    },
    {
      "name": "FOLKSTON ANNEX IPC",
      "latitude": 30.8305818,
      "longitude": -82.0097846,
      "address": "FOLKSTON, GA, 31537",
      "population_count": 286,
      "facility_type": "DIGSA"
    },
    {
      "name": "FOLKSTON D RAY ICE PROCES",
      "latitude": 30.8305818,
      "longitude": -82.0097846,
      "address": "FOLKSTON, GA, 31537",
      "population_count": 28,
      "facility_type": "DIGSA"
    },
    {
      "name": "FOLKSTON MAIN IPC",
      "latitude": 30.8305818,
      "longitude": -82.0097846,
      "address": "FOLKSTON, GA, 31537",
      "population_count": 676,
      "facility_type": "DIGSA"
    },
    {
      "name": "FLORENCE SERVICE PROCESSING CENTER",
      "latitude": 33.0640298,
      "longitude": -111.3825565,
      "address": "FLORENCE, AZ, 85132",
      "population_count": 390,
      "facility_type": "SPC"
    },
    {
      "name": "FREEBORN COUNTY ADULT DETENTION CENTER",
      "latitude": 43.6480127,
      "longitude": -93.3682656,
      "address": "ALBERT LEA, MN, 56007",
      "population_count": 81,
      "facility_type": "IGSA"
    },
    {
      "name": "PRINCE EDWARD COUNTY (FARMVILLE)",
      "latitude": 37.3010844,
      "longitude": -78.3893787,
      "address": "FARMVILLE, VA, 23901",
      "population_count": 585,
      "facility_type": "DIGSA"
    },
    {
      "name": "GLADES COUNTY DETENTION CENTER",
      "latitude": 26.8331174,
      "longitude": -81.0931234,
      "address": "MOORE HAVEN, FL, 33471",
      "population_count": 121,
      "facility_type": "IGSA"
    },
    {
      "name": "GOLDEN STATE ANNEX",
      "latitude": 35.6698182,
      "longitude": -119.2275672,
      "address": "MCFARLAND, CA, 93250",
      "population_count": 601,
      "facility_type": "CDF"
    },
    {
      "name": "HARDIN COUNTY JAIL",
      "latitude": 42.3606883,
      "longitude": -93.099609,
      "address": "ELDORA, IA, 50627",
      "population_count": 10,
      "facility_type": "IGSA"
    },
    {
      "name": "HALL COUNTY DEPARTMENT OF CORRECTIONS",
      "latitude": 40.924271,
      "longitude": -98.338685,
      "address": "GRAND ISLAND, NE, 68801",
      "population_count": 1,
      "facility_type": "IGSA"
    },
    {
      "name": "HANCOCK COUNTY PUBLIC SAFETY COMPLEX",
      "latitude": 30.3105666,
      "longitude": -89.3275482,
      "address": "BAY ST. LOUIS, MS, 39520",
      "population_count": 23,
      "facility_type": "IGSA"
    },
    {
      "name": "HOUSTON CONTRACT DETENTION FACILITY",
      "latitude": 29.7589382,
      "longitude": -95.3676974,
      "address": "HOUSTON, TX, 77032",
      "population_count": 846,
      "facility_type": "CDF"
    },
    {
      "name": "IMPERIAL REGIONAL DETENTION FACILITY",
      "latitude": 32.6668134,
      "longitude": -115.4963754,
      "address": "CALEXICO, CA, 92231",
      "population_count": 666,
      "facility_type": "CDF"
    },
    {
      "name": "JOE CORLEY PROCESSING CTR",
      "latitude": 30.3118769,
      "longitude": -95.4560512,
      "address": "CONROE, TX, 77301",
      "population_count": 861,
      "facility_type": "IGSA"
    },
    {
      "name": "JEFFERSON COUNTY JAIL",
      "latitude": 43.6751937,
      "longitude": -111.918002,
      "address": "RIGBY, ID, 83442",
      "population_count": 5,
      "facility_type": "IGSA"
    },
    {
      "name": "CENTRAL LOUISIANA ICE PROCESSING CENTER (CLIPC)",
      "latitude": 31.6832271,
      "longitude": -92.1337448,
      "address": "JENA, LA, 71342",
      "population_count": 1180,
      "facility_type": "DIGSA"
    },
    {
      "name": "JACKSON PARISH CORRECTIONAL CENTER",
      "latitude": 32.241538,
      "longitude": -92.7154376,
      "address": "JONESBORO, LA, 71251",
      "population_count": 1056,
      "facility_type": "DIGSA"
    },
    {
      "name": "KANDIYOHI COUNTY JAIL",
      "latitude": 45.146069,
      "longitude": -95.0136893,
      "address": "WILLMAR, MN, 56201",
      "population_count": 144,
      "facility_type": "IGSA"
    },
    {
      "name": "KAY CO JUSTICE FACILITY",
      "latitude": 36.8823649,
      "longitude": -97.0536785,
      "address": "NEWKIRK, OK, 74647",
      "population_count": 116,
      "facility_type": "IGSA"
    },
    {
      "name": "KENTON COUNTY JAIL",
      "latitude": 39.0831712,
      "longitude": -84.5107548,
      "address": "COVINGTON, KY, 41017",
      "population_count": 22,
      "facility_type": "IGSA"
    },
    {
      "name": "KARNES COUNTY IMMIGRATION PROCESSING CENTER",
      "latitude": 28.8843073,
      "longitude": -97.915171,
      "address": "KARNES CITY, TX, 78118",
      "population_count": 958,
      "facility_type": "DIGSA"
    },
    {
      "name": "KROME NORTH SERVICE PROCESSING CENTER",
      "latitude": 25.7546881,
      "longitude": -80.4896527,
      "address": "MIAMI, FL, 33194",
      "population_count": 909,
      "facility_type": "SPC"
    },
    {
      "name": "LAKE COUNTY JAIL",
      "latitude": 28.8021812,
      "longitude": -81.731332,
      "address": "TAVARES, FL, 32778",
      "population_count": 1,
      "facility_type": "IGSA"
    },
    {
      "name": "WINN CORRECTIONAL CENTER",
      "latitude": 31.8502693,
      "longitude": -92.7792943,
      "address": "WINNFIELD, LA, 71483",
      "population_count": 1563,
      "facility_type": "DIGSA"
    },
    {
      "name": "LAREDO PROCESSING CENTER",
      "latitude": 27.4168043,
      "longitude": -99.4514344,
      "address": "LAREDO, TX, 78041",
      "population_count": 368,
      "facility_type": "DIGSA"
    },
    {
      "name": "MONROE COUNTY DETENTION-DORM",
      "latitude": 41.9145037,
      "longitude": -83.3968252,
      "address": "MONROE, MI, 48161",
      "population_count": 107,
      "facility_type": "IGSA"
    },
    {
      "name": "MONTGOMERY COUNTY JAIL",
      "latitude": 42.9544248,
      "longitude": -74.3769163,
      "address": "FONDA, NY, 12068",
      "population_count": 2,
      "facility_type": "IGSA"
    },
    {
      "name": "MOSHANNON VALLEY PROCESSING CENTER",
      "latitude": 40.9209855,
      "longitude": -78.2422799,
      "address": "PHILIPSBURG, PA, 16866",
      "population_count": 1395,
      "facility_type": "DIGSA"
    },
    {
      "name": "MONTGOMERY ICE PROCESSING CENTER",
      "latitude": 30.3118769,
      "longitude": -95.4560512,
      "address": "CONROE, TX, 77301",
      "population_count": 1218,
      "facility_type": "CDF"
    },
    {
      "name": "NORTH LAKE CORRECTIONAL F",
      "latitude": 43.901123,
      "longitude": -85.851729,
      "address": "BALDWIN, MI, 49304",
      "population_count": 93,
      "facility_type": "CDF"
    },
    {
      "name": "ORANGE COUNTY JAIL (NY)",
      "latitude": 41.4021497,
      "longitude": -74.3242129,
      "address": "GOSHEN, NY, 10924",
      "population_count": 126,
      "facility_type": "IGSA"
    },
    {
      "name": "OTERO COUNTY PROCESSING CENTER",
      "latitude": 32.0786798,
      "longitude": -106.2779169,
      "address": "CHAPARRAL, NM, 88081",
      "population_count": 877,
      "facility_type": "DIGSA"
    },
    {
      "name": "OZARK COUNTY SHERIFF'S OFFICE",
      "latitude": 36.6031184,
      "longitude": -92.428217,
      "address": "GAINESVILLE, MO, 65655",
      "population_count": 5,
      "facility_type": "IGSA"
    },
    {
      "name": "PICKENS COUNTY DET CTR",
      "latitude": 33.2617871,
      "longitude": -88.0950263,
      "address": "CARROLLTON, AL, 35447",
      "population_count": 39,
      "facility_type": "IGSA"
    },
    {
      "name": "PORT ISABEL SPC",
      "latitude": 26.0714502,
      "longitude": -97.4770792,
      "address": "LOS FRESNOS, TX, 78566",
      "population_count": 1087,
      "facility_type": "SPC"
    },
    {
      "name": "PIKE COUNTY JAIL",
      "latitude": 41.3675908,
      "longitude": -75.0623947,
      "address": "LORDS VALLEY, PA, 18428",
      "population_count": 191,
      "facility_type": "IGSA"
    },
    {
      "name": "PINE PRAIRIE ICE PROCESSING CENTER",
      "latitude": 30.7890963,
      "longitude": -92.4225038,
      "address": "PINE PRAIRIE, LA, 70576",
      "population_count": 783,
      "facility_type": "DIGSA"
    },
    {
      "name": "PLYMOUTH COUNTY CORRECTIONAL FACILITY",
      "latitude": 41.9318079,
      "longitude": -70.6512992,
      "address": "PLYMOUTH, MA, 2360",
      "population_count": 448,
      "facility_type": "IGSA"
    },
    {
      "name": "IAH SECURE ADULT DETENTION FACILITY (POLK)",
      "latitude": 30.6981513,
      "longitude": -95.0057915,
      "address": "LIVINGSTON, TX, 77351",
      "population_count": 821,
      "facility_type": "DIGSA"
    },
    {
      "name": "PRAIRIELAND DETENTION CENTER",
      "latitude": 32.4095565,
      "longitude": -97.2102881,
      "address": "ALVARADO, TX, 76009",
      "population_count": 824,
      "facility_type": "DIGSA"
    },
    {
      "name": "RIVER CORRECTIONAL CENTER",
      "latitude": 31.5971775,
      "longitude": -91.5584304,
      "address": "FERRIDAY, LA, 71334",
      "population_count": 556,
      "facility_type": "DIGSA"
    },
    {
      "name": "RICHWOOD CORRECTIONAL CENTER",
      "latitude": 32.5025471,
      "longitude": -92.116219,
      "address": "MONROE, LA, 71202",
      "population_count": 938,
      "facility_type": "DIGSA"
    },
    {
      "name": "SENECA COUNTY JAIL",
      "latitude": 41.114485,
      "longitude": -83.1779537,
      "address": "TIFFIN, OH, 44883",
      "population_count": 60,
      "facility_type": "IGSA"
    },
    {
      "name": "SHERBURNE COUNTY JAIL",
      "latitude": 45.3038538,
      "longitude": -93.5671825,
      "address": "ELK RIVER, MN, 55330",
      "population_count": 61,
      "facility_type": "IGSA"
    },
    {
      "name": "SAN LUIS REGIONAL DETENTION CENTER",
      "latitude": 32.4841516,
      "longitude": -114.6847898,
      "address": "SAN LUIS, AZ, 85349",
      "population_count": 222,
      "facility_type": "IGSA"
    },
    {
      "name": "SOUTH TEXAS ICE PROCESSING CENTER",
      "latitude": 28.894612,
      "longitude": -99.1219,
      "address": "PEARSALL, TX, 78061",
      "population_count": 1692,
      "facility_type": "CDF"
    },
    {
      "name": "ST. CLAIR COUNTY JAIL",
      "latitude": 42.9760854,
      "longitude": -82.4333742,
      "address": "PORT HURON, MI, 48060",
      "population_count": 66,
      "facility_type": "IGSA"
    },
    {
      "name": "DILLEY IMMIGRATION PROCESSING CENTER",
      "latitude": 28.6695971,
      "longitude": -99.1672017,
      "address": "DILLEY, TX, 78017",
      "population_count": 152,
      "facility_type": "FAMILY"
    },
    {
      "name": "STRAFFORD COUNTY CORRECTIONS",
      "latitude": 43.1951512,
      "longitude": -70.8722235,
      "address": "DOVER, NH, 3820",
      "population_count": 112,
      "facility_type": "IGSA"
    },
    {
      "name": "STEWART DETENTION CENTER",
      "latitude": 32.0356341,
      "longitude": -84.7719795,
      "address": "LUMPKIN, GA, 31815",
      "population_count": 1912,
      "facility_type": "DIGSA"
    },
    {
      "name": "TURNER GUILFORD KNIGHT (TGK) JAIL",
      "latitude": 25.7741728,
      "longitude": -80.19362,
      "address": "MIAMI, FL, 33166",
      "population_count": 1,
      "facility_type": "IGSA"
    },
    {
      "name": "TORRANCE/ESTANCIA, NM",
      "latitude": 34.7613675,
      "longitude": -106.0554354,
      "address": "ESTANCIA, NM, 87016",
      "population_count": 454,
      "facility_type": "IGSA"
    },
    {
      "name": "TULSA COUNTY JAIL (DAVID L. MOSS JUSTICE CTR)",
      "latitude": 36.1563122,
      "longitude": -95.9927516,
      "address": "TULSA, OK, 74103",
      "population_count": 58,
      "facility_type": "IGSA"
    },
    {
      "name": "BROWARD TRANSITIONAL CENTER",
      "latitude": 26.2772767,
      "longitude": -80.1509053,
      "address": "POMPANO BEACH, FL, 33073",
      "population_count": 649,
      "facility_type": "CDF"
    },
    {
      "name": "WEBB COUNTY DETENTION CENTER (CCA)",
      "latitude": 27.5075005,
      "longitude": -99.5069922,
      "address": "LAREDO, TX, 78041",
      "population_count": 388,
      "facility_type": "DIGSA"
    },
    {
      "name": "NORTHERN REGIONAL JAIL",
      "latitude": 39.920425,
      "longitude": -80.7432124,
      "address": "MOUNDSVILLE, WV, 26041",
      "population_count": 7,
      "facility_type": "IGSA"
    },
    {
      "name": "SOUTH CENTRAL REGIONAL JAIL",
      "latitude": 38.3505995,
      "longitude": -81.6332812,
      "address": "CHARLESTON, WV, 25309",
      "population_count": 13,
      "facility_type": "IGSA"
    },
    {
      "name": "ADAMS COUNTY DET CENTER",
      "latitude": 31.5604076,
      "longitude": -91.403171,
      "address": "NATCHEZ, MS, 39120",
      "population_count": 2170,
      "facility_type": "DIGSA"
    },
    {
      "name": "ADELANTO ICE PROCESSING CENTER",
      "latitude": 34.5599467,
      "longitude": -117.4421505,
      "address": "ADELANTO, CA, 92301",
      "population_count": 468,
      "facility_type": "CDF"
    },
    {
      "name": "ALAMANCE COUNTY DETENTION FACILITY",
      "latitude": 36.0690258,
      "longitude": -79.4005756,
      "address": "GRAHAM, NC, 27253",
      "population_count": 24,
      "facility_type": "IGSA"
    },
    {
      "name": "ALLEGANY COUNTY JAIL",
      "latitude": 42.2231241,
      "longitude": -78.0344506,
      "address": "BELMONT, NY, 14813",
      "population_count": 5,
      "facility_type": "IGSA"
    },
    {
      "name": "ALLEN PARISH PUBLIC SAFETY COMPLEX",
      "latitude": 30.6201984,
      "longitude": -92.7626462,
      "address": "OBERLIN, LA, 70655",
      "population_count": 173,
      "facility_type": "IGSA"
    },
    {
      "name": "ATLANTA US PEN",
      "latitude": 33.7544657,
      "longitude": -84.3898151,
      "address": "ATLANTA, GA, 30315",
      "population_count": 85,
      "facility_type": "BOP"
    },
    {
      "name": "BAKER COUNTY SHERIFF DEPT.",
      "latitude": 30.2821807,
      "longitude": -82.1220569,
      "address": "MACCLENNY, FL, 32063",
      "population_count": 261,
      "facility_type": "IGSA"
    },
    {
      "name": "BERLIN FED. CORR. INST.",
      "latitude": 44.4800787,
      "longitude": -71.1692439,
      "address": "BERLIN, NH, 3570",
      "population_count": 124,
      "facility_type": "BOP"
    },
    {
      "name": "BLUEBONNET DETENTION FACILITY",
      "latitude": 32.7564766,
      "longitude": -99.896788,
      "address": "ANSON, TX, 79501",
      "population_count": 963,
      "facility_type": "DIGSA"
    },
    {
      "name": "BROOKLYN MDC",
      "latitude": 40.659735,
      "longitude": -74.0035874,
      "address": "BROOKLYN, NY, 11232",
      "population_count": 18,
      "facility_type": "BOP"
    },
    {
      "name": "BROOME COUNTY JAIL",
      "latitude": 42.09767,
      "longitude": -75.9110211,
      "address": "BINGHAMTON, NY, 13905",
      "population_count": 7,
      "facility_type": "IGSA"
    },
    {
      "name": "BROWARD COUNTY JAIL",
      "latitude": 26.1223084,
      "longitude": -80.1433786,
      "address": "FT.LAUDERDALE, FL, 33301",
      "population_count": 2,
      "facility_type": "IGSA"
    },
    {
      "name": "BROWARD TRANSITIONAL CENTER",
      "latitude": 26.2772767,
      "longitude": -80.1509053,
      "address": "POMPANO BEACH, FL, 33073",
      "population_count": 646,
      "facility_type": "CDF"
    },
    {
      "name": "BUFFALO SERVICE PROCESSING CENTER",
      "latitude": 43.0203148,
      "longitude": -78.2016158,
      "address": "BATAVIA, NY, 14020",
      "population_count": 626,
      "facility_type": "SPC"
    },
    {
      "name": "CALHOUN COUNTY CORRECTIONAL CENTER",
      "latitude": 42.3192548,
      "longitude": -85.1824269,
      "address": "BATTLE CREEK, MI, 49014",
      "population_count": 157,
      "facility_type": "IGSA"
    },
    {
      "name": "CAROLINE DETENTION FACILITY",
      "latitude": 38.0498524,
      "longitude": -77.3469994,
      "address": "BOWLING GREEN, VA, 22427",
      "population_count": 298,
      "facility_type": "DIGSA"
    },
    {
      "name": "CENTRAL LOUISIANA ICE PROCESSING CENTER (CLIPC)",
      "latitude": 31.6832271,
      "longitude": -92.1337448,
      "address": "JENA, LA, 71342",
      "population_count": 1176,
      "facility_type": "DIGSA"
    },
    {
      "name": "CHASE COUNTY JAIL",
      "latitude": 43.4407654,
      "longitude": -103.5762024,
      "address": "COTTONWOOD FALL, KS, 66845",
      "population_count": 106,
      "facility_type": "IGSA"
    },
    {
      "name": "CHIPPEWA COUNTY SSM",
      "latitude": 46.4976734,
      "longitude": -84.3476583,
      "address": "SAULT STE MARIE, MI, 49783",
      "population_count": 32,
      "facility_type": "IGSA"
    },
    {
      "name": "CIBOLA COUNTY CORRECTIONAL CENTER",
      "latitude": 35.1796636,
      "longitude": -107.9078742,
      "address": "MILAN, NM, 87021",
      "population_count": 222,
      "facility_type": "IGSA"
    },
    {
      "name": "COLLIER COUNTY NAPLES JAIL CENTER",
      "latitude": 26.1421976,
      "longitude": -81.7942944,
      "address": "NAPLES, FL, 34112",
      "population_count": 16,
      "facility_type": "IGSA"
    },
    {
      "name": "DELANEY HALL DETENTION FACILITY",
      "latitude": 40.7678868,
      "longitude": -74.1596235,
      "address": "NEWARK, NJ, 7105",
      "population_count": 187,
      "facility_type": "CDF"
    },
    {
      "name": "DENVER CONTRACT DETENTION FACILITY",
      "latitude": 39.7405111,
      "longitude": -104.830994,
      "address": "AURORA, CO, 80010",
      "population_count": 1177,
      "facility_type": "CDF"
    },
    {
      "name": "DESERT VIEW ANNEX",
      "latitude": 34.5599404,
      "longitude": -117.4372813,
      "address": "ADELANTO, CA, 92301",
      "population_count": 420,
      "facility_type": "CDF"
    },
    {
      "name": "DILLEY IMMIGRATION PROCESSING CENTER",
      "latitude": 28.6695971,
      "longitude": -99.1672017,
      "address": "DILLEY, TX, 78017",
      "population_count": 144,
      "facility_type": "FAMILY"
    },
    {
      "name": "EL PASO SERVICE PROCESSING CENTER",
      "latitude": 31.7955926,
      "longitude": -106.3696348,
      "address": "EL PASO, TX, 79925",
      "population_count": 816,
      "facility_type": "SPC"
    },
    {
      "name": "EL VALLE DETENTION FACILITY",
      "latitude": 26.4814565,
      "longitude": -97.783051,
      "address": "RAYMONDVILLE, TX, 78580",
      "population_count": 850,
      "facility_type": "DIGSA"
    },
    {
      "name": "ELIZABETH CONTRACT DETENTION FACILITY",
      "latitude": 40.6690688,
      "longitude": -74.1836424,
      "address": "ELIZABETH, NJ, 7201",
      "population_count": 297,
      "facility_type": "CDF"
    },
    {
      "name": "ELOY FEDERAL CONTRACT FACILITY",
      "latitude": 32.7551703,
      "longitude": -111.553493,
      "address": "ELOY, AZ, 85131",
      "population_count": 1400,
      "facility_type": "DIGSA"
    },
    {
      "name": "ERO EL PASO CAMP EAST MONTANA",
      "latitude": 31.8072184,
      "longitude": -106.2230394,
      "address": "EL PASO, TX, 79936",
      "population_count": 7,
      "facility_type": "CDF"
    },
    {
      "name": "FDC PHILADELPHIA",
      "latitude": 39.9527237,
      "longitude": -75.1635262,
      "address": "PHILADELPHIA, PA, 19106",
      "population_count": 59,
      "facility_type": "BOP"
    },
    {
      "name": "FLORENCE SERVICE PROCESSING CENTER",
      "latitude": 33.0640298,
      "longitude": -111.3825565,
      "address": "FLORENCE, AZ, 85132",
      "population_count": 387,
      "facility_type": "SPC"
    },
    {
      "name": "FOLKSTON ANNEX IPC",
      "latitude": 30.8305818,
      "longitude": -82.0097846,
      "address": "FOLKSTON, GA, 31537",
      "population_count": 286,
      "facility_type": "DIGSA"
    },
    {
      "name": "FOLKSTON D RAY ICE PROCES",
      "latitude": 30.8305818,
      "longitude": -82.0097846,
      "address": "FOLKSTON, GA, 31537",
      "population_count": 12,
      "facility_type": "DIGSA"
    },
    {
      "name": "FOLKSTON MAIN IPC",
      "latitude": 30.8305818,
      "longitude": -82.0097846,
      "address": "FOLKSTON, GA, 31537",
      "population_count": 675,
      "facility_type": "DIGSA"
    },
    {
      "name": "FREEBORN COUNTY ADULT DETENTION CENTER",
      "latitude": 43.6480127,
      "longitude": -93.3682656,
      "address": "ALBERT LEA, MN, 56007",
      "population_count": 81,
      "facility_type": "IGSA"
    },
    {
      "name": "GLADES COUNTY DETENTION CENTER",
      "latitude": 26.8331174,
      "longitude": -81.0931234,
      "address": "MOORE HAVEN, FL, 33471",
      "population_count": 108,
      "facility_type": "IGSA"
    },
    {
      "name": "GOLDEN STATE ANNEX",
      "latitude": 35.6698182,
      "longitude": -119.2275672,
      "address": "MCFARLAND, CA, 93250",
      "population_count": 598,
      "facility_type": "CDF"
    },
    {
      "name": "HANCOCK COUNTY PUBLIC SAFETY COMPLEX",
      "latitude": 30.3105666,
      "longitude": -89.3275482,
      "address": "BAY ST. LOUIS, MS, 39520",
      "population_count": 23,
      "facility_type": "IGSA"
    },
    {
      "name": "HARDIN COUNTY JAIL",
      "latitude": 42.3606883,
      "longitude": -93.099609,
      "address": "ELDORA, IA, 50627",
      "population_count": 9,
      "facility_type": "IGSA"
    },
    {
      "name": "HONOLULU FEDERAL DETENTION CENTER",
      "latitude": 21.304547,
      "longitude": -157.855676,
      "address": "HONOLULU, HI, 96819",
      "population_count": 45,
      "facility_type": "BOP"
    },
    {
      "name": "HOUSTON CONTRACT DETENTION FACILITY",
      "latitude": 29.7589382,
      "longitude": -95.3676974,
      "address": "HOUSTON, TX, 77032",
      "population_count": 842,
      "facility_type": "CDF"
    },
    {
      "name": "IAH SECURE ADULT DETENTION FACILITY (POLK)",
      "latitude": 30.6981513,
      "longitude": -95.0057915,
      "address": "LIVINGSTON, TX, 77351",
      "population_count": 817,
      "facility_type": "DIGSA"
    },
    {
      "name": "IMPERIAL REGIONAL DETENTION FACILITY",
      "latitude": 32.6668134,
      "longitude": -115.4963754,
      "address": "CALEXICO, CA, 92231",
      "population_count": 665,
      "facility_type": "CDF"
    },
    {
      "name": "JACKSON PARISH CORRECTIONAL CENTER",
      "latitude": 32.241538,
      "longitude": -92.7154376,
      "address": "JONESBORO, LA, 71251",
      "population_count": 1054,
      "facility_type": "DIGSA"
    },
    {
      "name": "JEFFERSON COUNTY JAIL",
      "latitude": 43.6751937,
      "longitude": -111.918002,
      "address": "RIGBY, ID, 83442",
      "population_count": 5,
      "facility_type": "IGSA"
    },
    {
      "name": "JOE CORLEY PROCESSING CTR",
      "latitude": 30.3118769,
      "longitude": -95.4560512,
      "address": "CONROE, TX, 77301",
      "population_count": 856,
      "facility_type": "IGSA"
    },
    {
      "name": "KANDIYOHI COUNTY JAIL",
      "latitude": 45.146069,
      "longitude": -95.0136893,
      "address": "WILLMAR, MN, 56201",
      "population_count": 144,
      "facility_type": "IGSA"
    },
    {
      "name": "KARNES COUNTY IMMIGRATION PROCESSING CENTER",
      "latitude": 28.8843073,
      "longitude": -97.915171,
      "address": "KARNES CITY, TX, 78118",
      "population_count": 946,
      "facility_type": "DIGSA"
    },
    {
      "name": "KAY CO JUSTICE FACILITY",
      "latitude": 36.8823649,
      "longitude": -97.0536785,
      "address": "NEWKIRK, OK, 74647",
      "population_count": 114,
      "facility_type": "IGSA"
    },
    {
      "name": "KENTON COUNTY JAIL",
      "latitude": 39.0831712,
      "longitude": -84.5107548,
      "address": "COVINGTON, KY, 41017",
      "population_count": 19,
      "facility_type": "IGSA"
    },
    {
      "name": "KROME NORTH SERVICE PROCESSING CENTER",
      "latitude": 25.7546881,
      "longitude": -80.4896527,
      "address": "MIAMI, FL, 33194",
      "population_count": 911,
      "facility_type": "SPC"
    },
    {
      "name": "LAKE COUNTY JAIL",
      "latitude": 28.8021812,
      "longitude": -81.731332,
      "address": "TAVARES, FL, 32778",
      "population_count": 1,
      "facility_type": "IGSA"
    },
    {
      "name": "LAREDO PROCESSING CENTER",
      "latitude": 27.4168043,
      "longitude": -99.4514344,
      "address": "LAREDO, TX, 78041",
      "population_count": 367,
      "facility_type": "DIGSA"
    },
    {
      "name": "LEAVENWORTH US PENITENTIARY",
      "latitude": 39.3113257,
      "longitude": -94.922759,
      "address": "LEAVENWORTH, KS, 66048",
      "population_count": 38,
      "facility_type": "BOP"
    },
    {
      "name": "MESA VERDE ICE PROCESSING CENTER",
      "latitude": 35.3798248,
      "longitude": -119.0061684,
      "address": "BAKERSFIELD, CA, 93301",
      "population_count": 117,
      "facility_type": "CDF"
    },
    {
      "name": "MIAMI FEDERAL DETENTION",
      "latitude": 25.7784335,
      "longitude": -80.1932366,
      "address": "MIAMI, FL, 33132",
      "population_count": 220,
      "facility_type": "BOP"
    },
    {
      "name": "MONROE COUNTY DETENTION-DORM",
      "latitude": 41.9145037,
      "longitude": -83.3968252,
      "address": "MONROE, MI, 48161",
      "population_count": 106,
      "facility_type": "IGSA"
    },
    {
      "name": "MONTGOMERY COUNTY JAIL",
      "latitude": 42.9544248,
      "longitude": -74.3769163,
      "address": "FONDA, NY, 12068",
      "population_count": 1,
      "facility_type": "IGSA"
    },
    {
      "name": "MONTGOMERY ICE PROCESSING CENTER",
      "latitude": 30.3118769,
      "longitude": -95.4560512,
      "address": "CONROE, TX, 77301",
      "population_count": 1219,
      "facility_type": "CDF"
    },
    {
      "name": "MOSHANNON VALLEY PROCESSING CENTER",
      "latitude": 40.9209855,
      "longitude": -78.2422799,
      "address": "PHILIPSBURG, PA, 16866",
      "population_count": 1384,
      "facility_type": "DIGSA"
    },
    {
      "name": "NORTH LAKE CORRECTIONAL F",
      "latitude": 43.901123,
      "longitude": -85.851729,
      "address": "BALDWIN, MI, 49304",
      "population_count": 68,
      "facility_type": "CDF"
    },
    {
      "name": "NORTHERN REGIONAL JAIL",
      "latitude": 39.920425,
      "longitude": -80.7432124,
      "address": "MOUNDSVILLE, WV, 26041",
      "population_count": 6,
      "facility_type": "IGSA"
    },
    {
      "name": "NORTHWEST ICE PROCESSSING CENTER",
      "latitude": 47.2455013,
      "longitude": -122.438329,
      "address": "TACOMA, WA, 98421",
      "population_count": 1154,
      "facility_type": "CDF"
    },
    {
      "name": "ORANGE COUNTY JAIL (NY)",
      "latitude": 41.4021497,
      "longitude": -74.3242129,
      "address": "GOSHEN, NY, 10924",
      "population_count": 124,
      "facility_type": "IGSA"
    },
    {
      "name": "OTAY MESA DETENTION CENTER",
      "latitude": 32.5765248,
      "longitude": -116.9154777,
      "address": "SAN DIEGO, CA, 92154",
      "population_count": 1374,
      "facility_type": "CDF"
    },
    {
      "name": "OTERO COUNTY PROCESSING CENTER",
      "latitude": 32.0786798,
      "longitude": -106.2779169,
      "address": "CHAPARRAL, NM, 88081",
      "population_count": 871,
      "facility_type": "DIGSA"
    },
    {
      "name": "OZARK COUNTY SHERIFF'S OFFICE",
      "latitude": 36.6031184,
      "longitude": -92.428217,
      "address": "GAINESVILLE, MO, 65655",
      "population_count": 4,
      "facility_type": "IGSA"
    },
    {
      "name": "PICKENS COUNTY DET CTR",
      "latitude": 33.2617871,
      "longitude": -88.0950263,
      "address": "CARROLLTON, AL, 35447",
      "population_count": 38,
      "facility_type": "IGSA"
    },
    {
      "name": "PIKE COUNTY JAIL",
      "latitude": 41.3675908,
      "longitude": -75.0623947,
      "address": "LORDS VALLEY, PA, 18428",
      "population_count": 189,
      "facility_type": "IGSA"
    },
    {
      "name": "PINE PRAIRIE ICE PROCESSING CENTER",
      "latitude": 30.7890963,
      "longitude": -92.4225038,
      "address": "PINE PRAIRIE, LA, 70576",
      "population_count": 773,
      "facility_type": "DIGSA"
    },
    {
      "name": "PLYMOUTH COUNTY CORRECTIONAL FACILITY",
      "latitude": 41.9318079,
      "longitude": -70.6512992,
      "address": "PLYMOUTH, MA, 2360",
      "population_count": 445,
      "facility_type": "IGSA"
    },
    {
      "name": "PORT ISABEL SPC",
      "latitude": 26.0714502,
      "longitude": -97.4770792,
      "address": "LOS FRESNOS, TX, 78566",
      "population_count": 1076,
      "facility_type": "SPC"
    },
    {
      "name": "PRAIRIELAND DETENTION CENTER",
      "latitude": 32.4095565,
      "longitude": -97.2102881,
      "address": "ALVARADO, TX, 76009",
      "population_count": 817,
      "facility_type": "DIGSA"
    },
    {
      "name": "PRINCE EDWARD COUNTY (FARMVILLE)",
      "latitude": 37.3010844,
      "longitude": -78.3893787,
      "address": "FARMVILLE, VA, 23901",
      "population_count": 579,
      "facility_type": "DIGSA"
    },
    {
      "name": "RICHWOOD CORRECTIONAL CENTER",
      "latitude": 32.5025471,
      "longitude": -92.116219,
      "address": "MONROE, LA, 71202",
      "population_count": 930,
      "facility_type": "DIGSA"
    },
    {
      "name": "RIVER CORRECTIONAL CENTER",
      "latitude": 31.5971775,
      "longitude": -91.5584304,
      "address": "FERRIDAY, LA, 71334",
      "population_count": 556,
      "facility_type": "DIGSA"
    },
    {
      "name": "SAN LUIS REGIONAL DETENTION CENTER",
      "latitude": 32.4841516,
      "longitude": -114.6847898,
      "address": "SAN LUIS, AZ, 85349",
      "population_count": 213,
      "facility_type": "IGSA"
    },
    {
      "name": "SENECA COUNTY JAIL",
      "latitude": 41.114485,
      "longitude": -83.1779537,
      "address": "TIFFIN, OH, 44883",
      "population_count": 60,
      "facility_type": "IGSA"
    },
    {
      "name": "SHERBURNE COUNTY JAIL",
      "latitude": 45.3038538,
      "longitude": -93.5671825,
      "address": "ELK RIVER, MN, 55330",
      "population_count": 59,
      "facility_type": "IGSA"
    },
    {
      "name": "SOUTH CENTRAL REGIONAL JAIL",
      "latitude": 38.3505995,
      "longitude": -81.6332812,
      "address": "CHARLESTON, WV, 25309",
      "population_count": 13,
      "facility_type": "IGSA"
    },
    {
      "name": "SOUTH LOUISIANA ICE PROCESSING CENTER",
      "latitude": 30.4875023,
      "longitude": -92.5831512,
      "address": "BASILE, LA, 70515",
      "population_count": 881,
      "facility_type": "DIGSA"
    },
    {
      "name": "SOUTH TEXAS ICE PROCESSING CENTER",
      "latitude": 28.894612,
      "longitude": -99.1219,
      "address": "PEARSALL, TX, 78061",
      "population_count": 1687,
      "facility_type": "CDF"
    },
    {
      "name": "ST. CLAIR COUNTY JAIL",
      "latitude": 42.9760854,
      "longitude": -82.4333742,
      "address": "PORT HURON, MI, 48060",
      "population_count": 67,
      "facility_type": "IGSA"
    },
    {
      "name": "STEWART DETENTION CENTER",
      "latitude": 32.0356341,
      "longitude": -84.7719795,
      "address": "LUMPKIN, GA, 31815",
      "population_count": 1903,
      "facility_type": "DIGSA"
    },
    {
      "name": "STRAFFORD COUNTY CORRECTIONS",
      "latitude": 43.1951512,
      "longitude": -70.8722235,
      "address": "DOVER, NH, 3820",
      "population_count": 110,
      "facility_type": "IGSA"
    },
    {
      "name": "T DON HUTTO DETENTION CENTER",
      "latitude": 30.5728854,
      "longitude": -97.4141053,
      "address": "TAYLOR, TX, 76574",
      "population_count": 430,
      "facility_type": "DIGSA"
    },
    {
      "name": "TORRANCE/ESTANCIA, NM",
      "latitude": 34.7613675,
      "longitude": -106.0554354,
      "address": "ESTANCIA, NM, 87016",
      "population_count": 449,
      "facility_type": "IGSA"
    },
    {
      "name": "TULSA COUNTY JAIL (DAVID L. MOSS JUSTICE CTR)",
      "latitude": 36.1563122,
      "longitude": -95.9927516,
      "address": "TULSA, OK, 74103",
      "population_count": 54,
      "facility_type": "IGSA"
    },
    {
      "name": "TURNER GUILFORD KNIGHT (TGK) JAIL",
      "latitude": 25.7741728,
      "longitude": -80.19362,
      "address": "MIAMI, FL, 33166",
      "population_count": 1,
      "facility_type": "IGSA"
    },
    {
      "name": "WEBB COUNTY DETENTION CENTER (CCA)",
      "latitude": 27.5075005,
      "longitude": -99.5069922,
      "address": "LAREDO, TX, 78041",
      "population_count": 384,
      "facility_type": "DIGSA"
    },
    {
      "name": "WINN CORRECTIONAL CENTER",
      "latitude": 31.8502693,
      "longitude": -92.7792943,
      "address": "WINNFIELD, LA, 71483",
      "population_count": 1560,
      "facility_type": "DIGSA"
    },
    {
      "name": "ADAMS COUNTY DET CENTER",
      "latitude": 31.5604076,
      "longitude": -91.403171,
      "address": "NATCHEZ, MS, 39120",
      "population_count": 2169,
      "facility_type": "DIGSA"
    },
    {
      "name": "ADELANTO ICE PROCESSING CENTER",
      "latitude": 34.5599467,
      "longitude": -117.4421505,
      "address": "ADELANTO, CA, 92301",
      "population_count": 410,
      "facility_type": "CDF"
    },
    {
      "name": "ALAMANCE COUNTY DETENTION FACILITY",
      "latitude": 36.0690258,
      "longitude": -79.4005756,
      "address": "GRAHAM, NC, 27253",
      "population_count": 23,
      "facility_type": "IGSA"
    },
    {
      "name": "ALLEGANY COUNTY JAIL",
      "latitude": 42.2231241,
      "longitude": -78.0344506,
      "address": "BELMONT, NY, 14813",
      "population_count": 5,
      "facility_type": "IGSA"
    },
    {
      "name": "ALLEN PARISH PUBLIC SAFETY COMPLEX",
      "latitude": 30.6201984,
      "longitude": -92.7626462,
      "address": "OBERLIN, LA, 70655",
      "population_count": 173,
      "facility_type": "IGSA"
    },
    {
      "name": "BAKER COUNTY SHERIFF DEPT.",
      "latitude": 30.2821807,
      "longitude": -82.1220569,
      "address": "MACCLENNY, FL, 32063",
      "population_count": 259,
      "facility_type": "IGSA"
    },
    {
      "name": "SOUTH LOUISIANA ICE PROCESSING CENTER",
      "latitude": 30.4875023,
      "longitude": -92.5831512,
      "address": "BASILE, LA, 70515",
      "population_count": 880,
      "facility_type": "DIGSA"
    },
    {
      "name": "BLUEBONNET DETENTION FACILITY",
      "latitude": 32.7564766,
      "longitude": -99.896788,
      "address": "ANSON, TX, 79501",
      "population_count": 955,
      "facility_type": "DIGSA"
    },
    {
      "name": "ATLANTA US PEN",
      "latitude": 33.7544657,
      "longitude": -84.3898151,
      "address": "ATLANTA, GA, 30315",
      "population_count": 82,
      "facility_type": "BOP"
    },
    {
      "name": "BERLIN FED. CORR. INST.",
      "latitude": 44.4800787,
      "longitude": -71.1692439,
      "address": "BERLIN, NH, 3570",
      "population_count": 118,
      "facility_type": "BOP"
    },
    {
      "name": "BROOKLYN MDC",
      "latitude": 40.659735,
      "longitude": -74.0035874,
      "address": "BROOKLYN, NY, 11232",
      "population_count": 14,
      "facility_type": "BOP"
    },
    {
      "name": "HONOLULU FEDERAL DETENTION CENTER",
      "latitude": 21.304547,
      "longitude": -157.855676,
      "address": "HONOLULU, HI, 96819",
      "population_count": 44,
      "facility_type": "BOP"
    },
    {
      "name": "LEAVENWORTH US PENITENTIARY",
      "latitude": 39.3113257,
      "longitude": -94.922759,
      "address": "LEAVENWORTH, KS, 66048",
      "population_count": 37,
      "facility_type": "BOP"
    },
    {
      "name": "MIAMI FEDERAL DETENTION",
      "latitude": 25.7784335,
      "longitude": -80.1932366,
      "address": "MIAMI, FL, 33132",
      "population_count": 210,
      "facility_type": "BOP"
    },
    {
      "name": "FDC PHILADELPHIA",
      "latitude": 39.9527237,
      "longitude": -75.1635262,
      "address": "PHILADELPHIA, PA, 19106",
      "population_count": 57,
      "facility_type": "BOP"
    },
    {
      "name": "BROOME COUNTY JAIL",
      "latitude": 42.09767,
      "longitude": -75.9110211,
      "address": "BINGHAMTON, NY, 13905",
      "population_count": 6,
      "facility_type": "IGSA"
    },
    {
      "name": "BUFFALO SERVICE PROCESSING CENTER",
      "latitude": 43.0203148,
      "longitude": -78.2016158,
      "address": "BATAVIA, NY, 14020",
      "population_count": 618,
      "facility_type": "SPC"
    },
    {
      "name": "MESA VERDE ICE PROCESSING CENTER",
      "latitude": 35.3798248,
      "longitude": -119.0061684,
      "address": "BAKERSFIELD, CA, 93301",
      "population_count": 103,
      "facility_type": "CDF"
    },
    {
      "name": "DESERT VIEW ANNEX",
      "latitude": 34.5599404,
      "longitude": -117.4372813,
      "address": "ADELANTO, CA, 92301",
      "population_count": 418,
      "facility_type": "CDF"
    },
    {
      "name": "CALHOUN COUNTY CORRECTIONAL CENTER",
      "latitude": 42.3192548,
      "longitude": -85.1824269,
      "address": "BATTLE CREEK, MI, 49014",
      "population_count": 156,
      "facility_type": "IGSA"
    },
    {
      "name": "CAROLINE DETENTION FACILITY",
      "latitude": 38.0498524,
      "longitude": -77.3469994,
      "address": "BOWLING GREEN, VA, 22427",
      "population_count": 298,
      "facility_type": "DIGSA"
    },
    {
      "name": "T DON HUTTO DETENTION CENTER",
      "latitude": 30.5728854,
      "longitude": -97.4141053,
      "address": "TAYLOR, TX, 76574",
      "population_count": 429,
      "facility_type": "DIGSA"
    },
    {
      "name": "OTAY MESA DETENTION CENTER",
      "latitude": 32.5765248,
      "longitude": -116.9154777,
      "address": "SAN DIEGO, CA, 92154",
      "population_count": 1366,
      "facility_type": "CDF"
    },
    {
      "name": "CHASE COUNTY JAIL",
      "latitude": 43.4407654,
      "longitude": -103.5762024,
      "address": "COTTONWOOD FALL, KS, 66845",
      "population_count": 105,
      "facility_type": "IGSA"
    },
    {
      "name": "CHIPPEWA COUNTY SSM",
      "latitude": 46.4976734,
      "longitude": -84.3476583,
      "address": "SAULT STE MARIE, MI, 49783",
      "population_count": 32,
      "facility_type": "IGSA"
    },
    {
      "name": "CIBOLA COUNTY CORRECTIONAL CENTER",
      "latitude": 35.1796636,
      "longitude": -107.9078742,
      "address": "MILAN, NM, 87021",
      "population_count": 223,
      "facility_type": "IGSA"
    },
    {
      "name": "COLLIER COUNTY NAPLES JAIL CENTER",
      "latitude": 26.1421976,
      "longitude": -81.7942944,
      "address": "NAPLES, FL, 34112",
      "population_count": 15,
      "facility_type": "IGSA"
    },
    {
      "name": "NORTHWEST ICE PROCESSSING CENTER",
      "latitude": 47.2455013,
      "longitude": -122.438329,
      "address": "TACOMA, WA, 98421",
      "population_count": 1138,
      "facility_type": "CDF"
    },
    {
      "name": "DENVER CONTRACT DETENTION FACILITY",
      "latitude": 39.7405111,
      "longitude": -104.830994,
      "address": "AURORA, CO, 80010",
      "population_count": 1173,
      "facility_type": "CDF"
    },
    {
      "name": "DELANEY HALL DETENTION FACILITY",
      "latitude": 40.7678868,
      "longitude": -74.1596235,
      "address": "NEWARK, NJ, 7105",
      "population_count": 162,
      "facility_type": "CDF"
    },
    {
      "name": "ELOY FEDERAL CONTRACT FACILITY",
      "latitude": 32.7551703,
      "longitude": -111.553493,
      "address": "ELOY, AZ, 85131",
      "population_count": 1395,
      "facility_type": "DIGSA"
    },
    {
      "name": "EL VALLE DETENTION FACILITY",
      "latitude": 26.4814565,
      "longitude": -97.783051,
      "address": "RAYMONDVILLE, TX, 78580",
      "population_count": 844,
      "facility_type": "DIGSA"
    },
    {
      "name": "ELIZABETH CONTRACT DETENTION FACILITY",
      "latitude": 40.6690688,
      "longitude": -74.1836424,
      "address": "ELIZABETH, NJ, 7201",
      "population_count": 295,
      "facility_type": "CDF"
    },
    {
      "name": "EL PASO SERVICE PROCESSING CENTER",
      "latitude": 31.7955926,
      "longitude": -106.3696348,
      "address": "EL PASO, TX, 79925",
      "population_count": 809,
      "facility_type": "SPC"
    },
    {
      "name": "FOLKSTON ANNEX IPC",
      "latitude": 30.8305818,
      "longitude": -82.0097846,
      "address": "FOLKSTON, GA, 31537",
      "population_count": 285,
      "facility_type": "DIGSA"
    },
    {
      "name": "FOLKSTON MAIN IPC",
      "latitude": 30.8305818,
      "longitude": -82.0097846,
      "address": "FOLKSTON, GA, 31537",
      "population_count": 671,
      "facility_type": "DIGSA"
    },
    {
      "name": "FLORENCE SERVICE PROCESSING CENTER",
      "latitude": 33.0640298,
      "longitude": -111.3825565,
      "address": "FLORENCE, AZ, 85132",
      "population_count": 384,
      "facility_type": "SPC"
    },
    {
      "name": "FREEBORN COUNTY ADULT DETENTION CENTER",
      "latitude": 43.6480127,
      "longitude": -93.3682656,
      "address": "ALBERT LEA, MN, 56007",
      "population_count": 80,
      "facility_type": "IGSA"
    },
    {
      "name": "PRINCE EDWARD COUNTY (FARMVILLE)",
      "latitude": 37.3010844,
      "longitude": -78.3893787,
      "address": "FARMVILLE, VA, 23901",
      "population_count": 574,
      "facility_type": "DIGSA"
    },
    {
      "name": "GLADES COUNTY DETENTION CENTER",
      "latitude": 26.8331174,
      "longitude": -81.0931234,
      "address": "MOORE HAVEN, FL, 33471",
      "population_count": 100,
      "facility_type": "IGSA"
    },
    {
      "name": "GOLDEN STATE ANNEX",
      "latitude": 35.6698182,
      "longitude": -119.2275672,
      "address": "MCFARLAND, CA, 93250",
      "population_count": 594,
      "facility_type": "CDF"
    },
    {
      "name": "HARDIN COUNTY JAIL",
      "latitude": 42.3606883,
      "longitude": -93.099609,
      "address": "ELDORA, IA, 50627",
      "population_count": 8,
      "facility_type": "IGSA"
    },
    {
      "name": "HANCOCK COUNTY PUBLIC SAFETY COMPLEX",
      "latitude": 30.3105666,
      "longitude": -89.3275482,
      "address": "BAY ST. LOUIS, MS, 39520",
      "population_count": 22,
      "facility_type": "IGSA"
    },
    {
      "name": "HOUSTON CONTRACT DETENTION FACILITY",
      "latitude": 29.7589382,
      "longitude": -95.3676974,
      "address": "HOUSTON, TX, 77032",
      "population_count": 837,
      "facility_type": "CDF"
    },
    {
      "name": "IMPERIAL REGIONAL DETENTION FACILITY",
      "latitude": 32.6668134,
      "longitude": -115.4963754,
      "address": "CALEXICO, CA, 92231",
      "population_count": 664,
      "facility_type": "CDF"
    },
    {
      "name": "JOE CORLEY PROCESSING CTR",
      "latitude": 30.3118769,
      "longitude": -95.4560512,
      "address": "CONROE, TX, 77301",
      "population_count": 849,
      "facility_type": "IGSA"
    },
    {
      "name": "JEFFERSON COUNTY JAIL",
      "latitude": 43.6751937,
      "longitude": -111.918002,
      "address": "RIGBY, ID, 83442",
      "population_count": 5,
      "facility_type": "IGSA"
    },
    {
      "name": "CENTRAL LOUISIANA ICE PROCESSING CENTER (CLIPC)",
      "latitude": 31.6832271,
      "longitude": -92.1337448,
      "address": "JENA, LA, 71342",
      "population_count": 1173,
      "facility_type": "DIGSA"
    },
    {
      "name": "JACKSON PARISH CORRECTIONAL CENTER",
      "latitude": 32.241538,
      "longitude": -92.7154376,
      "address": "JONESBORO, LA, 71251",
      "population_count": 1055,
      "facility_type": "DIGSA"
    },
    {
      "name": "KANDIYOHI COUNTY JAIL",
      "latitude": 45.146069,
      "longitude": -95.0136893,
      "address": "WILLMAR, MN, 56201",
      "population_count": 145,
      "facility_type": "IGSA"
    },
    {
      "name": "KAY CO JUSTICE FACILITY",
      "latitude": 36.8823649,
      "longitude": -97.0536785,
      "address": "NEWKIRK, OK, 74647",
      "population_count": 113,
      "facility_type": "IGSA"
    },
    {
      "name": "KENTON COUNTY JAIL",
      "latitude": 39.0831712,
      "longitude": -84.5107548,
      "address": "COVINGTON, KY, 41017",
      "population_count": 16,
      "facility_type": "IGSA"
    },
    {
      "name": "KARNES COUNTY IMMIGRATION PROCESSING CENTER",
      "latitude": 28.8843073,
      "longitude": -97.915171,
      "address": "KARNES CITY, TX, 78118",
      "population_count": 930,
      "facility_type": "DIGSA"
    },
    {
      "name": "KROME NORTH SERVICE PROCESSING CENTER",
      "latitude": 25.7546881,
      "longitude": -80.4896527,
      "address": "MIAMI, FL, 33194",
      "population_count": 915,
      "facility_type": "SPC"
    },
    {
      "name": "LAKE COUNTY JAIL",
      "latitude": 28.8021812,
      "longitude": -81.731332,
      "address": "TAVARES, FL, 32778",
      "population_count": 1,
      "facility_type": "IGSA"
    },
    {
      "name": "WINN CORRECTIONAL CENTER",
      "latitude": 31.8502693,
      "longitude": -92.7792943,
      "address": "WINNFIELD, LA, 71483",
      "population_count": 1555,
      "facility_type": "DIGSA"
    },
    {
      "name": "LAREDO PROCESSING CENTER",
      "latitude": 27.4168043,
      "longitude": -99.4514344,
      "address": "LAREDO, TX, 78041",
      "population_count": 366,
      "facility_type": "DIGSA"
    },
    {
      "name": "MONROE COUNTY DETENTION-DORM",
      "latitude": 41.9145037,
      "longitude": -83.3968252,
      "address": "MONROE, MI, 48161",
      "population_count": 105,
      "facility_type": "IGSA"
    },
    {
      "name": "MONTGOMERY COUNTY JAIL",
      "latitude": 42.9544248,
      "longitude": -74.3769163,
      "address": "FONDA, NY, 12068",
      "population_count": 1,
      "facility_type": "IGSA"
    },
    {
      "name": "MOSHANNON VALLEY PROCESSING CENTER",
      "latitude": 40.9209855,
      "longitude": -78.2422799,
      "address": "PHILIPSBURG, PA, 16866",
      "population_count": 1374,
      "facility_type": "DIGSA"
    },
    {
      "name": "MONTGOMERY ICE PROCESSING CENTER",
      "latitude": 30.3118769,
      "longitude": -95.4560512,
      "address": "CONROE, TX, 77301",
      "population_count": 1217,
      "facility_type": "CDF"
    },
    {
      "name": "NORTH LAKE CORRECTIONAL F",
      "latitude": 43.901123,
      "longitude": -85.851729,
      "address": "BALDWIN, MI, 49304",
      "population_count": 47,
      "facility_type": "CDF"
    },
    {
      "name": "ORANGE COUNTY JAIL (NY)",
      "latitude": 41.4021497,
      "longitude": -74.3242129,
      "address": "GOSHEN, NY, 10924",
      "population_count": 122,
      "facility_type": "IGSA"
    },
    {
      "name": "OTERO COUNTY PROCESSING CENTER",
      "latitude": 32.0786798,
      "longitude": -106.2779169,
      "address": "CHAPARRAL, NM, 88081",
      "population_count": 863,
      "facility_type": "DIGSA"
    },
    {
      "name": "OZARK COUNTY SHERIFF'S OFFICE",
      "latitude": 36.6031184,
      "longitude": -92.428217,
      "address": "GAINESVILLE, MO, 65655",
      "population_count": 4,
      "facility_type": "IGSA"
    },
    {
      "name": "PICKENS COUNTY DET CTR",
      "latitude": 33.2617871,
      "longitude": -88.0950263,
      "address": "CARROLLTON, AL, 35447",
      "population_count": 38,
      "facility_type": "IGSA"
    },
    {
      "name": "PORT ISABEL SPC",
      "latitude": 26.0714502,
      "longitude": -97.4770792,
      "address": "LOS FRESNOS, TX, 78566",
      "population_count": 1058,
      "facility_type": "SPC"
    },
    {
      "name": "PIKE COUNTY JAIL",
      "latitude": 41.3675908,
      "longitude": -75.0623947,
      "address": "LORDS VALLEY, PA, 18428",
      "population_count": 187,
      "facility_type": "IGSA"
    },
    {
      "name": "PINE PRAIRIE ICE PROCESSING CENTER",
      "latitude": 30.7890963,
      "longitude": -92.4225038,
      "address": "PINE PRAIRIE, LA, 70576",
      "population_count": 761,
      "facility_type": "DIGSA"
    },
    {
      "name": "PLYMOUTH COUNTY CORRECTIONAL FACILITY",
      "latitude": 41.9318079,
      "longitude": -70.6512992,
      "address": "PLYMOUTH, MA, 2360",
      "population_count": 444,
      "facility_type": "IGSA"
    },
    {
      "name": "IAH SECURE ADULT DETENTION FACILITY (POLK)",
      "latitude": 30.6981513,
      "longitude": -95.0057915,
      "address": "LIVINGSTON, TX, 77351",
      "population_count": 813,
      "facility_type": "DIGSA"
    },
    {
      "name": "PRAIRIELAND DETENTION CENTER",
      "latitude": 32.4095565,
      "longitude": -97.2102881,
      "address": "ALVARADO, TX, 76009",
      "population_count": 808,
      "facility_type": "DIGSA"
    },
    {
      "name": "RIVER CORRECTIONAL CENTER",
      "latitude": 31.5971775,
      "longitude": -91.5584304,
      "address": "FERRIDAY, LA, 71334",
      "population_count": 555,
      "facility_type": "DIGSA"
    },
    {
      "name": "RICHWOOD CORRECTIONAL CENTER",
      "latitude": 32.5025471,
      "longitude": -92.116219,
      "address": "MONROE, LA, 71202",
      "population_count": 921,
      "facility_type": "DIGSA"
    },
    {
      "name": "SENECA COUNTY JAIL",
      "latitude": 41.114485,
      "longitude": -83.1779537,
      "address": "TIFFIN, OH, 44883",
      "population_count": 60,
      "facility_type": "IGSA"
    },
    {
      "name": "SHERBURNE COUNTY JAIL",
      "latitude": 45.3038538,
      "longitude": -93.5671825,
      "address": "ELK RIVER, MN, 55330",
      "population_count": 57,
      "facility_type": "IGSA"
    },
    {
      "name": "SAN LUIS REGIONAL DETENTION CENTER",
      "latitude": 32.4841516,
      "longitude": -114.6847898,
      "address": "SAN LUIS, AZ, 85349",
      "population_count": 202,
      "facility_type": "IGSA"
    },
    {
      "name": "SOUTH TEXAS ICE PROCESSING CENTER",
      "latitude": 28.894612,
      "longitude": -99.1219,
      "address": "PEARSALL, TX, 78061",
      "population_count": 1679,
      "facility_type": "CDF"
    },
    {
      "name": "ST. CLAIR COUNTY JAIL",
      "latitude": 42.9760854,
      "longitude": -82.4333742,
      "address": "PORT HURON, MI, 48060",
      "population_count": 69,
      "facility_type": "IGSA"
    },
    {
      "name": "DILLEY IMMIGRATION PROCESSING CENTER",
      "latitude": 28.6695971,
      "longitude": -99.1672017,
      "address": "DILLEY, TX, 78017",
      "population_count": 135,
      "facility_type": "FAMILY"
    },
    {
      "name": "STRAFFORD COUNTY CORRECTIONS",
      "latitude": 43.1951512,
      "longitude": -70.8722235,
      "address": "DOVER, NH, 3820",
      "population_count": 109,
      "facility_type": "IGSA"
    },
    {
      "name": "STEWART DETENTION CENTER",
      "latitude": 32.0356341,
      "longitude": -84.7719795,
      "address": "LUMPKIN, GA, 31815",
      "population_count": 1892,
      "facility_type": "DIGSA"
    },
    {
      "name": "TORRANCE/ESTANCIA, NM",
      "latitude": 34.7613675,
      "longitude": -106.0554354,
      "address": "ESTANCIA, NM, 87016",
      "population_count": 444,
      "facility_type": "IGSA"
    },
    {
      "name": "TULSA COUNTY JAIL (DAVID L. MOSS JUSTICE CTR)",
      "latitude": 36.1563122,
      "longitude": -95.9927516,
      "address": "TULSA, OK, 74103",
      "population_count": 50,
      "facility_type": "IGSA"
    },
    {
      "name": "BROWARD TRANSITIONAL CENTER",
      "latitude": 26.2772767,
      "longitude": -80.1509053,
      "address": "POMPANO BEACH, FL, 33073",
      "population_count": 644,
      "facility_type": "CDF"
    },
    {
      "name": "WEBB COUNTY DETENTION CENTER (CCA)",
      "latitude": 27.5075005,
      "longitude": -99.5069922,
      "address": "LAREDO, TX, 78041",
      "population_count": 378,
      "facility_type": "DIGSA"
    },
    {
      "name": "NORTHERN REGIONAL JAIL",
      "latitude": 39.920425,
      "longitude": -80.7432124,
      "address": "MOUNDSVILLE, WV, 26041",
      "population_count": 4,
      "facility_type": "IGSA"
    },
    {
      "name": "SOUTH CENTRAL REGIONAL JAIL",
      "latitude": 38.3505995,
      "longitude": -81.6332812,
      "address": "CHARLESTON, WV, 25309",
      "population_count": 13,
      "facility_type": "IGSA"
    },
    {
      "name": "ADAMS COUNTY DET CENTER",
      "latitude": 31.5604076,
      "longitude": -91.403171,
      "address": "NATCHEZ, MS, 39120",
      "population_count": 2170,
      "facility_type": "DIGSA"
    },
    {
      "name": "ADELANTO ICE PROCESSING CENTER",
      "latitude": 34.5599467,
      "longitude": -117.4421505,
      "address": "ADELANTO, CA, 92301",
      "population_count": 351,
      "facility_type": "CDF"
    },
    {
      "name": "ALAMANCE COUNTY DETENTION FACILITY",
      "latitude": 36.0690258,
      "longitude": -79.4005756,
      "address": "GRAHAM, NC, 27253",
      "population_count": 22,
      "facility_type": "IGSA"
    },
    {
      "name": "ALLEGANY COUNTY JAIL",
      "latitude": 42.2231241,
      "longitude": -78.0344506,
      "address": "BELMONT, NY, 14813",
      "population_count": 5,
      "facility_type": "IGSA"
    },
    {
      "name": "ALLEN PARISH PUBLIC SAFETY COMPLEX",
      "latitude": 30.6201984,
      "longitude": -92.7626462,
      "address": "OBERLIN, LA, 70655",
      "population_count": 175,
      "facility_type": "IGSA"
    },
    {
      "name": "BAKER COUNTY SHERIFF DEPT.",
      "latitude": 30.2821807,
      "longitude": -82.1220569,
      "address": "MACCLENNY, FL, 32063",
      "population_count": 256,
      "facility_type": "IGSA"
    },
    {
      "name": "SOUTH LOUISIANA ICE PROCESSING CENTER",
      "latitude": 30.4875023,
      "longitude": -92.5831512,
      "address": "BASILE, LA, 70515",
      "population_count": 880,
      "facility_type": "DIGSA"
    },
    {
      "name": "BLUEBONNET DETENTION FACILITY",
      "latitude": 32.7564766,
      "longitude": -99.896788,
      "address": "ANSON, TX, 79501",
      "population_count": 950,
      "facility_type": "DIGSA"
    },
    {
      "name": "ATLANTA US PEN",
      "latitude": 33.7544657,
      "longitude": -84.3898151,
      "address": "ATLANTA, GA, 30315",
      "population_count": 77,
      "facility_type": "BOP"
    },
    {
      "name": "BERLIN FED. CORR. INST.",
      "latitude": 44.4800787,
      "longitude": -71.1692439,
      "address": "BERLIN, NH, 3570",
      "population_count": 113,
      "facility_type": "BOP"
    },
    {
      "name": "BROOKLYN MDC",
      "latitude": 40.659735,
      "longitude": -74.0035874,
      "address": "BROOKLYN, NY, 11232",
      "population_count": 9,
      "facility_type": "BOP"
    },
    {
      "name": "HONOLULU FEDERAL DETENTION CENTER",
      "latitude": 21.304547,
      "longitude": -157.855676,
      "address": "HONOLULU, HI, 96819",
      "population_count": 42,
      "facility_type": "BOP"
    },
    {
      "name": "LEAVENWORTH US PENITENTIARY",
      "latitude": 39.3113257,
      "longitude": -94.922759,
      "address": "LEAVENWORTH, KS, 66048",
      "population_count": 35,
      "facility_type": "BOP"
    },
    {
      "name": "MIAMI FEDERAL DETENTION",
      "latitude": 25.7784335,
      "longitude": -80.1932366,
      "address": "MIAMI, FL, 33132",
      "population_count": 200,
      "facility_type": "BOP"
    },
    {
      "name": "FDC PHILADELPHIA",
      "latitude": 39.9527237,
      "longitude": -75.1635262,
      "address": "PHILADELPHIA, PA, 19106",
      "population_count": 54,
      "facility_type": "BOP"
    },
    {
      "name": "BROWARD COUNTY JAIL",
      "latitude": 26.1223084,
      "longitude": -80.1433786,
      "address": "FT.LAUDERDALE, FL, 33301",
      "population_count": 2,
      "facility_type": "IGSA"
    },
    {
      "name": "BROOME COUNTY JAIL",
      "latitude": 42.09767,
      "longitude": -75.9110211,
      "address": "BINGHAMTON, NY, 13905",
      "population_count": 5,
      "facility_type": "IGSA"
    },
    {
      "name": "BUFFALO SERVICE PROCESSING CENTER",
      "latitude": 43.0203148,
      "longitude": -78.2016158,
      "address": "BATAVIA, NY, 14020",
      "population_count": 612,
      "facility_type": "SPC"
    },
    {
      "name": "MESA VERDE ICE PROCESSING CENTER",
      "latitude": 35.3798248,
      "longitude": -119.0061684,
      "address": "BAKERSFIELD, CA, 93301",
      "population_count": 90,
      "facility_type": "CDF"
    },
    {
      "name": "DESERT VIEW ANNEX",
      "latitude": 34.5599404,
      "longitude": -117.4372813,
      "address": "ADELANTO, CA, 92301",
      "population_count": 416,
      "facility_type": "CDF"
    },
    {
      "name": "CALHOUN COUNTY CORRECTIONAL CENTER",
      "latitude": 42.3192548,
      "longitude": -85.1824269,
      "address": "BATTLE CREEK, MI, 49014",
      "population_count": 155,
      "facility_type": "IGSA"
    },
    {
      "name": "CAROLINE DETENTION FACILITY",
      "latitude": 38.0498524,
      "longitude": -77.3469994,
      "address": "BOWLING GREEN, VA, 22427",
      "population_count": 298,
      "facility_type": "DIGSA"
    },
    {
      "name": "T DON HUTTO DETENTION CENTER",
      "latitude": 30.5728854,
      "longitude": -97.4141053,
      "address": "TAYLOR, TX, 76574",
      "population_count": 429,
      "facility_type": "DIGSA"
    },
    {
      "name": "OTAY MESA DETENTION CENTER",
      "latitude": 32.5765248,
      "longitude": -116.9154777,
      "address": "SAN DIEGO, CA, 92154",
      "population_count": 1361,
      "facility_type": "CDF"
    },
    {
      "name": "CHASE COUNTY JAIL",
      "latitude": 43.4407654,
      "longitude": -103.5762024,
      "address": "COTTONWOOD FALL, KS, 66845",
      "population_count": 104,
      "facility_type": "IGSA"
    },
    {
      "name": "CHIPPEWA COUNTY SSM",
      "latitude": 46.4976734,
      "longitude": -84.3476583,
      "address": "SAULT STE MARIE, MI, 49783",
      "population_count": 32,
      "facility_type": "IGSA"
    },
    {
      "name": "CIBOLA COUNTY CORRECTIONAL CENTER",
      "latitude": 35.1796636,
      "longitude": -107.9078742,
      "address": "MILAN, NM, 87021",
      "population_count": 223,
      "facility_type": "IGSA"
    },
    {
      "name": "COLLIER COUNTY NAPLES JAIL CENTER",
      "latitude": 26.1421976,
      "longitude": -81.7942944,
      "address": "NAPLES, FL, 34112",
      "population_count": 15,
      "facility_type": "IGSA"
    },
    {
      "name": "NORTHWEST ICE PROCESSSING CENTER",
      "latitude": 47.2455013,
      "longitude": -122.438329,
      "address": "TACOMA, WA, 98421",
      "population_count": 1119,
      "facility_type": "CDF"
    },
    {
      "name": "DENVER CONTRACT DETENTION FACILITY",
      "latitude": 39.7405111,
      "longitude": -104.830994,
      "address": "AURORA, CO, 80010",
      "population_count": 1169,
      "facility_type": "CDF"
    },
    {
      "name": "DELANEY HALL DETENTION FACILITY",
      "latitude": 40.7678868,
      "longitude": -74.1596235,
      "address": "NEWARK, NJ, 7105",
      "population_count": 139,
      "facility_type": "CDF"
    },
    {
      "name": "ELOY FEDERAL CONTRACT FACILITY",
      "latitude": 32.7551703,
      "longitude": -111.553493,
      "address": "ELOY, AZ, 85131",
      "population_count": 1390,
      "facility_type": "DIGSA"
    },
    {
      "name": "EL VALLE DETENTION FACILITY",
      "latitude": 26.4814565,
      "longitude": -97.783051,
      "address": "RAYMONDVILLE, TX, 78580",
      "population_count": 840,
      "facility_type": "DIGSA"
    },
    {
      "name": "ELIZABETH CONTRACT DETENTION FACILITY",
      "latitude": 40.6690688,
      "longitude": -74.1836424,
      "address": "ELIZABETH, NJ, 7201",
      "population_count": 293,
      "facility_type": "CDF"
    },
    {
      "name": "EL PASO SERVICE PROCESSING CENTER",
      "latitude": 31.7955926,
      "longitude": -106.3696348,
      "address": "EL PASO, TX, 79925",
      "population_count": 803,
      "facility_type": "SPC"
    },
    {
      "name": "FINNEY COUNTY JAIL",
      "latitude": 37.9676312,
      "longitude": -100.8760179,
      "address": "GARDEN CITY, KS, 67846",
      "population_count": 1,
      "facility_type": "IGSA"
    },
    {
      "name": "FOLKSTON ANNEX IPC",
      "latitude": 30.8305818,
      "longitude": -82.0097846,
      "address": "FOLKSTON, GA, 31537",
      "population_count": 284,
      "facility_type": "DIGSA"
    },
    {
      "name": "FOLKSTON MAIN IPC",
      "latitude": 30.8305818,
      "longitude": -82.0097846,
      "address": "FOLKSTON, GA, 31537",
      "population_count": 656,
      "facility_type": "DIGSA"
    },
    {
      "name": "FLORENCE SERVICE PROCESSING CENTER",
      "latitude": 33.0640298,
      "longitude": -111.3825565,
      "address": "FLORENCE, AZ, 85132",
      "population_count": 384,
      "facility_type": "SPC"
    },
    {
      "name": "FREEBORN COUNTY ADULT DETENTION CENTER",
      "latitude": 43.6480127,
      "longitude": -93.3682656,
      "address": "ALBERT LEA, MN, 56007",
      "population_count": 80,
      "facility_type": "IGSA"
    },
    {
      "name": "PRINCE EDWARD COUNTY (FARMVILLE)",
      "latitude": 37.3010844,
      "longitude": -78.3893787,
      "address": "FARMVILLE, VA, 23901",
      "population_count": 569,
      "facility_type": "DIGSA"
    },
    {
      "name": "GLADES COUNTY DETENTION CENTER",
      "latitude": 26.8331174,
      "longitude": -81.0931234,
      "address": "MOORE HAVEN, FL, 33471",
      "population_count": 89,
      "facility_type": "IGSA"
    },
    {
      "name": "GOLDEN STATE ANNEX",
      "latitude": 35.6698182,
      "longitude": -119.2275672,
      "address": "MCFARLAND, CA, 93250",
      "population_count": 589,
      "facility_type": "CDF"
    },
    {
      "name": "HARDIN COUNTY JAIL",
      "latitude": 42.3606883,
      "longitude": -93.099609,
      "address": "ELDORA, IA, 50627",
      "population_count": 8,
      "facility_type": "IGSA"
    },
    {
      "name": "HANCOCK COUNTY PUBLIC SAFETY COMPLEX",
      "latitude": 30.3105666,
      "longitude": -89.3275482,
      "address": "BAY ST. LOUIS, MS, 39520",
      "population_count": 22,
      "facility_type": "IGSA"
    },
    {
      "name": "HOUSTON CONTRACT DETENTION FACILITY",
      "latitude": 29.7589382,
      "longitude": -95.3676974,
      "address": "HOUSTON, TX, 77032",
      "population_count": 832,
      "facility_type": "CDF"
    },
    {
      "name": "IMPERIAL REGIONAL DETENTION FACILITY",
      "latitude": 32.6668134,
      "longitude": -115.4963754,
      "address": "CALEXICO, CA, 92231",
      "population_count": 664,
      "facility_type": "CDF"
    },
    {
      "name": "JOE CORLEY PROCESSING CTR",
      "latitude": 30.3118769,
      "longitude": -95.4560512,
      "address": "CONROE, TX, 77301",
      "population_count": 842,
      "facility_type": "IGSA"
    },
    {
      "name": "JEFFERSON COUNTY JAIL",
      "latitude": 43.6751937,
      "longitude": -111.918002,
      "address": "RIGBY, ID, 83442",
      "population_count": 5,
      "facility_type": "IGSA"
    },
    {
      "name": "CENTRAL LOUISIANA ICE PROCESSING CENTER (CLIPC)",
      "latitude": 31.6832271,
      "longitude": -92.1337448,
      "address": "JENA, LA, 71342",
      "population_count": 1176,
      "facility_type": "DIGSA"
    },
    {
      "name": "JACKSON PARISH CORRECTIONAL CENTER",
      "latitude": 32.241538,
      "longitude": -92.7154376,
      "address": "JONESBORO, LA, 71251",
      "population_count": 1053,
      "facility_type": "DIGSA"
    },
    {
      "name": "KANDIYOHI COUNTY JAIL",
      "latitude": 45.146069,
      "longitude": -95.0136893,
      "address": "WILLMAR, MN, 56201",
      "population_count": 145,
      "facility_type": "IGSA"
    },
    {
      "name": "KAY CO JUSTICE FACILITY",
      "latitude": 36.8823649,
      "longitude": -97.0536785,
      "address": "NEWKIRK, OK, 74647",
      "population_count": 111,
      "facility_type": "IGSA"
    },
    {
      "name": "KENTON COUNTY JAIL",
      "latitude": 39.0831712,
      "longitude": -84.5107548,
      "address": "COVINGTON, KY, 41017",
      "population_count": 13,
      "facility_type": "IGSA"
    },
    {
      "name": "KARNES COUNTY IMMIGRATION PROCESSING CENTER",
      "latitude": 28.8843073,
      "longitude": -97.915171,
      "address": "KARNES CITY, TX, 78118",
      "population_count": 914,
      "facility_type": "DIGSA"
    },
    {
      "name": "KROME NORTH SERVICE PROCESSING CENTER",
      "latitude": 25.7546881,
      "longitude": -80.4896527,
      "address": "MIAMI, FL, 33194",
      "population_count": 917,
      "facility_type": "SPC"
    },
    {
      "name": "LAKE COUNTY JAIL",
      "latitude": 28.8021812,
      "longitude": -81.731332,
      "address": "TAVARES, FL, 32778",
      "population_count": 1,
      "facility_type": "IGSA"
    },
    {
      "name": "WINN CORRECTIONAL CENTER",
      "latitude": 31.8502693,
      "longitude": -92.7792943,
      "address": "WINNFIELD, LA, 71483",
      "population_count": 1553,
      "facility_type": "DIGSA"
    },
    {
      "name": "LAREDO PROCESSING CENTER",
      "latitude": 27.4168043,
      "longitude": -99.4514344,
      "address": "LAREDO, TX, 78041",
      "population_count": 364,
      "facility_type": "DIGSA"
    },
    {
      "name": "MONROE COUNTY DETENTION-DORM",
      "latitude": 41.9145037,
      "longitude": -83.3968252,
      "address": "MONROE, MI, 48161",
      "population_count": 104,
      "facility_type": "IGSA"
    },
    {
      "name": "MONTGOMERY COUNTY JAIL",
      "latitude": 42.9544248,
      "longitude": -74.3769163,
      "address": "FONDA, NY, 12068",
      "population_count": 1,
      "facility_type": "IGSA"
    },
    {
      "name": "MOSHANNON VALLEY PROCESSING CENTER",
      "latitude": 40.9209855,
      "longitude": -78.2422799,
      "address": "PHILIPSBURG, PA, 16866",
      "population_count": 1362,
      "facility_type": "DIGSA"
    },
    {
      "name": "MONTGOMERY ICE PROCESSING CENTER",
      "latitude": 30.3118769,
      "longitude": -95.4560512,
      "address": "CONROE, TX, 77301",
      "population_count": 1214,
      "facility_type": "CDF"
    },
    {
      "name": "NORTH LAKE CORRECTIONAL F",
      "latitude": 43.901123,
      "longitude": -85.851729,
      "address": "BALDWIN, MI, 49304",
      "population_count": 28,
      "facility_type": "CDF"
    },
    {
      "name": "ORANGE COUNTY JAIL (NY)",
      "latitude": 41.4021497,
      "longitude": -74.3242129,
      "address": "GOSHEN, NY, 10924",
      "population_count": 120,
      "facility_type": "IGSA"
    },
    {
      "name": "OTERO COUNTY PROCESSING CENTER",
      "latitude": 32.0786798,
      "longitude": -106.2779169,
      "address": "CHAPARRAL, NM, 88081",
      "population_count": 856,
      "facility_type": "DIGSA"
    },
    {
      "name": "OZARK COUNTY SHERIFF'S OFFICE",
      "latitude": 36.6031184,
      "longitude": -92.428217,
      "address": "GAINESVILLE, MO, 65655",
      "population_count": 3,
      "facility_type": "IGSA"
    },
    {
      "name": "PICKENS COUNTY DET CTR",
      "latitude": 33.2617871,
      "longitude": -88.0950263,
      "address": "CARROLLTON, AL, 35447",
      "population_count": 38,
      "facility_type": "IGSA"
    },
    {
      "name": "PORT ISABEL SPC",
      "latitude": 26.0714502,
      "longitude": -97.4770792,
      "address": "LOS FRESNOS, TX, 78566",
      "population_count": 1053,
      "facility_type": "SPC"
    },
    {
      "name": "PIKE COUNTY JAIL",
      "latitude": 41.3675908,
      "longitude": -75.0623947,
      "address": "LORDS VALLEY, PA, 18428",
      "population_count": 187,
      "facility_type": "IGSA"
    },
    {
      "name": "PINE PRAIRIE ICE PROCESSING CENTER",
      "latitude": 30.7890963,
      "longitude": -92.4225038,
      "address": "PINE PRAIRIE, LA, 70576",
      "population_count": 752,
      "facility_type": "DIGSA"
    },
    {
      "name": "PLYMOUTH COUNTY CORRECTIONAL FACILITY",
      "latitude": 41.9318079,
      "longitude": -70.6512992,
      "address": "PLYMOUTH, MA, 2360",
      "population_count": 440,
      "facility_type": "IGSA"
    },
    {
      "name": "IAH SECURE ADULT DETENTION FACILITY (POLK)",
      "latitude": 30.6981513,
      "longitude": -95.0057915,
      "address": "LIVINGSTON, TX, 77351",
      "population_count": 810,
      "facility_type": "DIGSA"
    },
    {
      "name": "PRAIRIELAND DETENTION CENTER",
      "latitude": 32.4095565,
      "longitude": -97.2102881,
      "address": "ALVARADO, TX, 76009",
      "population_count": 799,
      "facility_type": "DIGSA"
    },
    {
      "name": "RIVER CORRECTIONAL CENTER",
      "latitude": 31.5971775,
      "longitude": -91.5584304,
      "address": "FERRIDAY, LA, 71334",
      "population_count": 556,
      "facility_type": "DIGSA"
    },
    {
      "name": "RICHWOOD CORRECTIONAL CENTER",
      "latitude": 32.5025471,
      "longitude": -92.116219,
      "address": "MONROE, LA, 71202",
      "population_count": 912,
      "facility_type": "DIGSA"
    },
    {
      "name": "SENECA COUNTY JAIL",
      "latitude": 41.114485,
      "longitude": -83.1779537,
      "address": "TIFFIN, OH, 44883",
      "population_count": 60,
      "facility_type": "IGSA"
    },
    {
      "name": "SHERBURNE COUNTY JAIL",
      "latitude": 45.3038538,
      "longitude": -93.5671825,
      "address": "ELK RIVER, MN, 55330",
      "population_count": 55,
      "facility_type": "IGSA"
    },
    {
      "name": "SAN LUIS REGIONAL DETENTION CENTER",
      "latitude": 32.4841516,
      "longitude": -114.6847898,
      "address": "SAN LUIS, AZ, 85349",
      "population_count": 192,
      "facility_type": "IGSA"
    },
    {
      "name": "SOUTH TEXAS ICE PROCESSING CENTER",
      "latitude": 28.894612,
      "longitude": -99.1219,
      "address": "PEARSALL, TX, 78061",
      "population_count": 1674,
      "facility_type": "CDF"
    },
    {
      "name": "ST. CLAIR COUNTY JAIL",
      "latitude": 42.9760854,
      "longitude": -82.4333742,
      "address": "PORT HURON, MI, 48060",
      "population_count": 69,
      "facility_type": "IGSA"
    },
    {
      "name": "DILLEY IMMIGRATION PROCESSING CENTER",
      "latitude": 28.6695971,
      "longitude": -99.1672017,
      "address": "DILLEY, TX, 78017",
      "population_count": 124,
      "facility_type": "DIGSA"
    },
    {
      "name": "STRAFFORD COUNTY CORRECTIONS",
      "latitude": 43.1951512,
      "longitude": -70.8722235,
      "address": "DOVER, NH, 3820",
      "population_count": 107,
      "facility_type": "IGSA"
    },
    {
      "name": "STEWART DETENTION CENTER",
      "latitude": 32.0356341,
      "longitude": -84.7719795,
      "address": "LUMPKIN, GA, 31815",
      "population_count": 1882,
      "facility_type": "DIGSA"
    },
    {
      "name": "TORRANCE/ESTANCIA, NM",
      "latitude": 34.7613675,
      "longitude": -106.0554354,
      "address": "ESTANCIA, NM, 87016",
      "population_count": 441,
      "facility_type": "IGSA"
    },
    {
      "name": "TULSA COUNTY JAIL (DAVID L. MOSS JUSTICE CTR)",
      "latitude": 36.1563122,
      "longitude": -95.9927516,
      "address": "TULSA, OK, 74103",
      "population_count": 45,
      "facility_type": "IGSA"
    },
    {
      "name": "BROWARD TRANSITIONAL CENTER",
      "latitude": 26.2772767,
      "longitude": -80.1509053,
      "address": "POMPANO BEACH, FL, 33073",
      "population_count": 643,
      "facility_type": "CDF"
    },
    {
      "name": "WEBB COUNTY DETENTION CENTER (CCA)",
      "latitude": 27.5075005,
      "longitude": -99.5069922,
      "address": "LAREDO, TX, 78041",
      "population_count": 374,
      "facility_type": "DIGSA"
    },
    {
      "name": "NORTHERN REGIONAL JAIL",
      "latitude": 39.920425,
      "longitude": -80.7432124,
      "address": "MOUNDSVILLE, WV, 26041",
      "population_count": 3,
      "facility_type": "IGSA"
    },
    {
      "name": "SOUTH CENTRAL REGIONAL JAIL",
      "latitude": 38.3505995,
      "longitude": -81.6332812,
      "address": "CHARLESTON, WV, 25309",
      "population_count": 12,
      "facility_type": "IGSA"
    },
    {
      "name": "ALAMANCE COUNTY DETENTION FACILITY",
      "latitude": 36.0690258,
      "longitude": -79.4005756,
      "address": "GRAHAM, NC, 27253",
      "population_count": 21,
      "facility_type": "IGSA"
    },
    {
      "name": "ATLANTA US PEN",
      "latitude": 33.7544657,
      "longitude": -84.3898151,
      "address": "ATLANTA, GA, 30315",
      "population_count": 59,
      "facility_type": "BOP"
    },
    {
      "name": "FOLKSTON ANNEX IPC",
      "latitude": 30.8305818,
      "longitude": -82.0097846,
      "address": "FOLKSTON, GA, 31537",
      "population_count": 280,
      "facility_type": "DIGSA"
    },
    {
      "name": "FOLKSTON MAIN IPC",
      "latitude": 30.8305818,
      "longitude": -82.0097846,
      "address": "FOLKSTON, GA, 31537",
      "population_count": 639,
      "facility_type": "DIGSA"
    },
    {
      "name": "STEWART DETENTION CENTER",
      "latitude": 32.0356341,
      "longitude": -84.7719795,
      "address": "LUMPKIN, GA, 31815",
      "population_count": 1857,
      "facility_type": "DIGSA"
    },
    {
      "name": "BERLIN FED. CORR. INST.",
      "latitude": 44.4800787,
      "longitude": -71.1692439,
      "address": "BERLIN, NH, 3570",
      "population_count": 95,
      "facility_type": "BOP"
    },
    {
      "name": "PLYMOUTH COUNTY CORRECTIONAL FACILITY",
      "latitude": 41.9318079,
      "longitude": -70.6512992,
      "address": "PLYMOUTH, MA, 2360",
      "population_count": 434,
      "facility_type": "IGSA"
    },
    {
      "name": "STRAFFORD COUNTY CORRECTIONS",
      "latitude": 43.1951512,
      "longitude": -70.8722235,
      "address": "DOVER, NH, 3820",
      "population_count": 103,
      "facility_type": "IGSA"
    },
    {
      "name": "ALLEGANY COUNTY JAIL",
      "latitude": 42.2231241,
      "longitude": -78.0344506,
      "address": "BELMONT, NY, 14813",
      "population_count": 4,
      "facility_type": "IGSA"
    },
    {
      "name": "BUFFALO SERVICE PROCESSING CENTER",
      "latitude": 43.0203148,
      "longitude": -78.2016158,
      "address": "BATAVIA, NY, 14020",
      "population_count": 601,
      "facility_type": "SPC"
    },
    {
      "name": "CHASE COUNTY JAIL",
      "latitude": 43.4407654,
      "longitude": -103.5762024,
      "address": "COTTONWOOD FALL, KS, 66845",
      "population_count": 102,
      "facility_type": "IGSA"
    },
    {
      "name": "KAY CO JUSTICE FACILITY",
      "latitude": 36.8823649,
      "longitude": -97.0536785,
      "address": "NEWKIRK, OK, 74647",
      "population_count": 107,
      "facility_type": "IGSA"
    },
    {
      "name": "KENTON COUNTY JAIL",
      "latitude": 39.0831712,
      "longitude": -84.5107548,
      "address": "COVINGTON, KY, 41011",
      "population_count": 7,
      "facility_type": "IGSA"
    },
    {
      "name": "LEAVENWORTH US PENITENTIARY",
      "latitude": 39.3113257,
      "longitude": -94.922759,
      "address": "LEAVENWORTH, KS, 66048",
      "population_count": 32,
      "facility_type": "BOP"
    },
    {
      "name": "OZARK COUNTY SHERIFF'S OFFICE",
      "latitude": 36.6031184,
      "longitude": -92.428217,
      "address": "GAINESVILLE, MO, 65655",
      "population_count": 2,
      "facility_type": "IGSA"
    },
    {
      "name": "FINNEY COUNTY JAIL",
      "latitude": 37.9676312,
      "longitude": -100.8760179,
      "address": "GARDEN CITY, KS, 67846",
      "population_count": 11,
      "facility_type": "IGSA"
    },
    {
      "name": "BLUEBONNET DETENTION FACILITY",
      "latitude": 32.7564766,
      "longitude": -99.896788,
      "address": "ANSON, TX, 79501",
      "population_count": 930,
      "facility_type": "DIGSA"
    },
    {
      "name": "PRAIRIELAND DETENTION CENTER",
      "latitude": 32.4095565,
      "longitude": -97.2102881,
      "address": "ALVARADO, TX, 76009",
      "population_count": 774,
      "facility_type": "DIGSA"
    },
    {
      "name": "TULSA COUNTY JAIL (DAVID L. MOSS JUSTICE CTR)",
      "latitude": 36.1563122,
      "longitude": -95.9927516,
      "address": "TULSA, OK, 74103",
      "population_count": 42,
      "facility_type": "IGSA"
    },
    {
      "name": "DENVER CONTRACT DETENTION FACILITY",
      "latitude": 39.7405111,
      "longitude": -104.830994,
      "address": "AURORA, CO, 80010",
      "population_count": 1159,
      "facility_type": "CDF"
    },
    {
      "name": "CALHOUN COUNTY CORRECTIONAL CENTER",
      "latitude": 42.3192548,
      "longitude": -85.1824269,
      "address": "BATTLE CREEK, MI, 49014",
      "population_count": 151,
      "facility_type": "IGSA"
    },
    {
      "name": "CHIPPEWA COUNTY SSM",
      "latitude": 46.4976734,
      "longitude": -84.3476583,
      "address": "SAULT STE MARIE, MI, 49783",
      "population_count": 31,
      "facility_type": "IGSA"
    },
    {
      "name": "MONROE COUNTY DETENTION-DORM",
      "latitude": 41.9145037,
      "longitude": -83.3968252,
      "address": "MONROE, MI, 48161",
      "population_count": 102,
      "facility_type": "IGSA"
    },
    {
      "name": "SENECA COUNTY JAIL",
      "latitude": 41.114485,
      "longitude": -83.1779537,
      "address": "TIFFIN, OH, 44883",
      "population_count": 60,
      "facility_type": "IGSA"
    },
    {
      "name": "ST. CLAIR COUNTY JAIL",
      "latitude": 42.9760854,
      "longitude": -82.4333742,
      "address": "PORT HURON, MI, 48060",
      "population_count": 69,
      "facility_type": "IGSA"
    },
    {
      "name": "CIBOLA COUNTY CORRECTIONAL CENTER",
      "latitude": 35.1796636,
      "longitude": -107.9078742,
      "address": "MILAN, NM, 87021",
      "population_count": 227,
      "facility_type": "IGSA"
    },
    {
      "name": "EL PASO SERVICE PROCESSING CENTER",
      "latitude": 31.7955926,
      "longitude": -106.3696348,
      "address": "EL PASO, TX, 79925",
      "population_count": 787,
      "facility_type": "SPC"
    },
    {
      "name": "OTERO COUNTY PROCESSING CENTER",
      "latitude": 32.0786798,
      "longitude": -106.2779169,
      "address": "CHAPARRAL, NM, 88081",
      "population_count": 843,
      "facility_type": "DIGSA"
    },
    {
      "name": "TORRANCE/ESTANCIA, NM",
      "latitude": 34.7613675,
      "longitude": -106.0554354,
      "address": "ESTANCIA, NM, 87016",
      "population_count": 435,
      "facility_type": "IGSA"
    },
    {
      "name": "EL VALLE DETENTION FACILITY",
      "latitude": 26.4814565,
      "longitude": -97.783051,
      "address": "RAYMONDVILLE, TX, 78580",
      "population_count": 837,
      "facility_type": "DIGSA"
    },
    {
      "name": "LAREDO PROCESSING CENTER",
      "latitude": 27.4168043,
      "longitude": -99.4514344,
      "address": "LAREDO, TX, 78041",
      "population_count": 360,
      "facility_type": "DIGSA"
    },
    {
      "name": "PORT ISABEL SPC",
      "latitude": 26.0714502,
      "longitude": -97.4770792,
      "address": "LOS FRESNOS, TX, 78566",
      "population_count": 1047,
      "facility_type": "SPC"
    },
    {
      "name": "WEBB COUNTY DETENTION CENTER (CCA)",
      "latitude": 27.5075005,
      "longitude": -99.5069922,
      "address": "LAREDO, TX, 78041",
      "population_count": 366,
      "facility_type": "DIGSA"
    },
    {
      "name": "HOUSTON CONTRACT DETENTION FACILITY",
      "latitude": 29.7589382,
      "longitude": -95.3676974,
      "address": "HOUSTON, TX, 77032",
      "population_count": 832,
      "facility_type": "CDF"
    },
    {
      "name": "IAH SECURE ADULT DETENTION FACILITY (POLK)",
      "latitude": 30.6981513,
      "longitude": -95.0057915,
      "address": "LIVINGSTON, TX, 77351",
      "population_count": 805,
      "facility_type": "DIGSA"
    },
    {
      "name": "JOE CORLEY PROCESSING CTR",
      "latitude": 30.3118769,
      "longitude": -95.4560512,
      "address": "CONROE, TX, 77301",
      "population_count": 827,
      "facility_type": "IGSA"
    },
    {
      "name": "MONTGOMERY ICE PROCESSING CENTER",
      "latitude": 30.3118769,
      "longitude": -95.4560512,
      "address": "CONROE, TX, 77301",
      "population_count": 1206,
      "facility_type": "CDF"
    },
    {
      "name": "ADELANTO ICE PROCESSING CENTER",
      "latitude": 34.5599467,
      "longitude": -117.4421505,
      "address": "ADELANTO, CA, 92301",
      "population_count": 213,
      "facility_type": "CDF"
    },
    {
      "name": "DESERT VIEW ANNEX",
      "latitude": 34.5599404,
      "longitude": -117.4372813,
      "address": "ADELANTO, CA, 92301",
      "population_count": 412,
      "facility_type": "CDF"
    },
    {
      "name": "BAKER COUNTY SHERIFF DEPT.",
      "latitude": 30.2821807,
      "longitude": -82.1220569,
      "address": "MACCLENNY, FL, 32063",
      "population_count": 251,
      "facility_type": "IGSA"
    },
    {
      "name": "BROWARD COUNTY JAIL",
      "latitude": 26.1223084,
      "longitude": -80.1433786,
      "address": "FT.LAUDERDALE, FL, 33301",
      "population_count": 2,
      "facility_type": "IGSA"
    },
    {
      "name": "BROWARD TRANSITIONAL CENTER",
      "latitude": 26.2772767,
      "longitude": -80.1509053,
      "address": "POMPANO BEACH, FL, 33073",
      "population_count": 639,
      "facility_type": "CDF"
    },
    {
      "name": "COLLIER COUNTY NAPLES JAIL CENTER",
      "latitude": 26.1421976,
      "longitude": -81.7942944,
      "address": "NAPLES, FL, 34112",
      "population_count": 13,
      "facility_type": "IGSA"
    },
    {
      "name": "GLADES COUNTY DETENTION CENTER",
      "latitude": 26.8331174,
      "longitude": -81.0931234,
      "address": "MOORE HAVEN, FL, 33471",
      "population_count": 68,
      "facility_type": "IGSA"
    },
    {
      "name": "KROME NORTH SERVICE PROCESSING CENTER",
      "latitude": 25.7546881,
      "longitude": -80.4896527,
      "address": "MIAMI, FL, 33194",
      "population_count": 871,
      "facility_type": "SPC"
    },
    {
      "name": "LAKE COUNTY JAIL",
      "latitude": 28.8021812,
      "longitude": -81.731332,
      "address": "TAVARES, FL, 32778",
      "population_count": 1,
      "facility_type": "IGSA"
    },
    {
      "name": "GUAYNABO MDC (SAN JUAN)",
      "latitude": 18.384239,
      "longitude": -66.05344,
      "address": "SAN JUAN, PR, 939",
      "population_count": 6,
      "facility_type": "BOP"
    },
    {
      "name": "DELANEY HALL DETENTION FACILITY",
      "latitude": 40.7678868,
      "longitude": -74.1596235,
      "address": "NEWARK, NJ, 7105",
      "population_count": 96,
      "facility_type": "CDF"
    },
    {
      "name": "ELIZABETH CONTRACT DETENTION FACILITY",
      "latitude": 40.6690688,
      "longitude": -74.1836424,
      "address": "ELIZABETH, NJ, 7201",
      "population_count": 290,
      "facility_type": "CDF"
    },
    {
      "name": "ADAMS COUNTY DET CENTER",
      "latitude": 31.5604076,
      "longitude": -91.403171,
      "address": "NATCHEZ, MS, 39120",
      "population_count": 2179,
      "facility_type": "DIGSA"
    },
    {
      "name": "ALLEN PARISH PUBLIC SAFETY COMPLEX",
      "latitude": 30.6201984,
      "longitude": -92.7626462,
      "address": "OBERLIN, LA, 70655",
      "population_count": 174,
      "facility_type": "IGSA"
    },
    {
      "name": "CENTRAL LOUISIANA ICE PROCESSING CENTER (CLIPC)",
      "latitude": 31.6832271,
      "longitude": -92.1337448,
      "address": "JENA, LA, 71342",
      "population_count": 1177,
      "facility_type": "DIGSA"
    },
    {
      "name": "HANCOCK COUNTY PUBLIC SAFETY COMPLEX",
      "latitude": 30.3105666,
      "longitude": -89.3275482,
      "address": "BAY ST. LOUIS, MS, 39520",
      "population_count": 22,
      "facility_type": "IGSA"
    },
    {
      "name": "JACKSON PARISH CORRECTIONAL CENTER",
      "latitude": 32.241538,
      "longitude": -92.7154376,
      "address": "JONESBORO, LA, 71251",
      "population_count": 1045,
      "facility_type": "DIGSA"
    },
    {
      "name": "PICKENS COUNTY DET CTR",
      "latitude": 33.2617871,
      "longitude": -88.0950263,
      "address": "CARROLLTON, AL, 35447",
      "population_count": 37,
      "facility_type": "IGSA"
    },
    {
      "name": "PINE PRAIRIE ICE PROCESSING CENTER",
      "latitude": 30.7890963,
      "longitude": -92.4225038,
      "address": "PINE PRAIRIE, LA, 70576",
      "population_count": 745,
      "facility_type": "DIGSA"
    },
    {
      "name": "RICHWOOD CORRECTIONAL CENTER",
      "latitude": 32.5025471,
      "longitude": -92.116219,
      "address": "MONROE, LA, 71202",
      "population_count": 894,
      "facility_type": "DIGSA"
    },
    {
      "name": "RIVER CORRECTIONAL CENTER",
      "latitude": 31.5971775,
      "longitude": -91.5584304,
      "address": "FERRIDAY, LA, 71334",
      "population_count": 556,
      "facility_type": "DIGSA"
    },
    {
      "name": "SOUTH LOUISIANA ICE PROCESSING CENTER",
      "latitude": 30.4875023,
      "longitude": -92.5831512,
      "address": "BASILE, LA, 70515",
      "population_count": 879,
      "facility_type": "DIGSA"
    },
    {
      "name": "WINN CORRECTIONAL CENTER",
      "latitude": 31.8502693,
      "longitude": -92.7792943,
      "address": "WINNFIELD, LA, 71483",
      "population_count": 1552,
      "facility_type": "DIGSA"
    },
    {
      "name": "ORANGE COUNTY JAIL (NY)",
      "latitude": 41.4021497,
      "longitude": -74.3242129,
      "address": "GOSHEN, NY, 10924",
      "population_count": 115,
      "facility_type": "IGSA"
    },
    {
      "name": "FDC PHILADELPHIA",
      "latitude": 39.9527237,
      "longitude": -75.1635262,
      "address": "PHILADELPHIA, PA, 19106",
      "population_count": 48,
      "facility_type": "BOP"
    },
    {
      "name": "MOSHANNON VALLEY PROCESSING CENTER",
      "latitude": 40.9209855,
      "longitude": -78.2422799,
      "address": "PHILIPSBURG, PA, 16866",
      "population_count": 1340,
      "facility_type": "DIGSA"
    },
    {
      "name": "NORTHERN REGIONAL JAIL",
      "latitude": 39.920425,
      "longitude": -80.7432124,
      "address": "MOUNDSVILLE, WV, 26041",
      "population_count": 1,
      "facility_type": "IGSA"
    },
    {
      "name": "PIKE COUNTY JAIL",
      "latitude": 41.3675908,
      "longitude": -75.0623947,
      "address": "LORDS VALLEY, PA, 18428",
      "population_count": 187,
      "facility_type": "IGSA"
    },
    {
      "name": "SOUTH CENTRAL REGIONAL JAIL",
      "latitude": 38.3505995,
      "longitude": -81.6332812,
      "address": "CHARLESTON, WV, 25309",
      "population_count": 10,
      "facility_type": "IGSA"
    },
    {
      "name": "ELOY FEDERAL CONTRACT FACILITY",
      "latitude": 32.7551703,
      "longitude": -111.553493,
      "address": "ELOY, AZ, 85131",
      "population_count": 1380,
      "facility_type": "DIGSA"
    },
    {
      "name": "FLORENCE SERVICE PROCESSING CENTER",
      "latitude": 33.0640298,
      "longitude": -111.3825565,
      "address": "FLORENCE, AZ, 85132",
      "population_count": 390,
      "facility_type": "SPC"
    },
    {
      "name": "NORTHWEST ICE PROCESSSING CENTER",
      "latitude": 47.2455013,
      "longitude": -122.438329,
      "address": "TACOMA, WA, 98421",
      "population_count": 1080,
      "facility_type": "CDF"
    },
    {
      "name": "GOLDEN STATE ANNEX",
      "latitude": 35.6698182,
      "longitude": -119.2275672,
      "address": "MCFARLAND, CA, 93250",
      "population_count": 582,
      "facility_type": "CDF"
    },
    {
      "name": "HONOLULU FEDERAL DETENTION CENTER",
      "latitude": 21.304547,
      "longitude": -157.855676,
      "address": "HONOLULU, HI, 96819",
      "population_count": 38,
      "facility_type": "BOP"
    },
    {
      "name": "MESA VERDE ICE PROCESSING CENTER",
      "latitude": 35.3798248,
      "longitude": -119.0061684,
      "address": "BAKERSFIELD, CA, 93301",
      "population_count": 60,
      "facility_type": "CDF"
    },
    {
      "name": "JEFFERSON COUNTY JAIL",
      "latitude": 43.6751937,
      "longitude": -111.918002,
      "address": "RIGBY, ID, 83442",
      "population_count": 5,
      "facility_type": "IGSA"
    },
    {
      "name": "DILLEY IMMIGRATION PROCESSING CENTER",
      "latitude": 28.6695971,
      "longitude": -99.1672017,
      "address": "DILLEY, TX, 78017",
      "population_count": 80,
      "facility_type": "DIGSA"
    },
    {
      "name": "KARNES COUNTY IMMIGRATION PROCESSING CENTER",
      "latitude": 28.8843073,
      "longitude": -97.915171,
      "address": "KARNES CITY, TX, 78118",
      "population_count": 881,
      "facility_type": "DIGSA"
    },
    {
      "name": "SOUTH TEXAS ICE PROCESSING CENTER",
      "latitude": 28.894612,
      "longitude": -99.1219,
      "address": "PEARSALL, TX, 78061",
      "population_count": 1670,
      "facility_type": "CDF"
    },
    {
      "name": "T DON HUTTO DETENTION CENTER",
      "latitude": 30.5728854,
      "longitude": -97.4141053,
      "address": "TAYLOR, TX, 76574",
      "population_count": 429,
      "facility_type": "DIGSA"
    },
    {
      "name": "IMPERIAL REGIONAL DETENTION FACILITY",
      "latitude": 32.6668134,
      "longitude": -115.4963754,
      "address": "CALEXICO, CA, 92231",
      "population_count": 667,
      "facility_type": "CDF"
    },
    {
      "name": "OTAY MESA DETENTION CENTER",
      "latitude": 32.5765248,
      "longitude": -116.9154777,
      "address": "SAN DIEGO, CA, 92154",
      "population_count": 1350,
      "facility_type": "CDF"
    },
    {
      "name": "SAN LUIS REGIONAL DETENTION CENTER",
      "latitude": 32.4841516,
      "longitude": -114.6847898,
      "address": "SAN LUIS, AZ, 85349",
      "population_count": 165,
      "facility_type": "IGSA"
    },
    {
      "name": "FREEBORN COUNTY ADULT DETENTION CENTER",
      "latitude": 43.6480127,
      "longitude": -93.3682656,
      "address": "ALBERT LEA, MN, 56007",
      "population_count": 79,
      "facility_type": "IGSA"
    },
    {
      "name": "HARDIN COUNTY JAIL",
      "latitude": 42.3606883,
      "longitude": -93.099609,
      "address": "ELDORA, IA, 50627",
      "population_count": 6,
      "facility_type": "IGSA"
    },
    {
      "name": "KANDIYOHI COUNTY JAIL",
      "latitude": 45.146069,
      "longitude": -95.0136893,
      "address": "WILLMAR, MN, 56201",
      "population_count": 145,
      "facility_type": "IGSA"
    },
    {
      "name": "SHERBURNE COUNTY JAIL",
      "latitude": 45.3038538,
      "longitude": -93.5671825,
      "address": "ELK RIVER, MN, 55330",
      "population_count": 51,
      "facility_type": "IGSA"
    },
    {
      "name": "CAROLINE DETENTION FACILITY",
      "latitude": 38.0498524,
      "longitude": -77.3469994,
      "address": "BOWLING GREEN, VA, 22427",
      "population_count": 296,
      "facility_type": "DIGSA"
    },
    {
      "name": "PRINCE EDWARD COUNTY (FARMVILLE)",
      "latitude": 37.3010844,
      "longitude": -78.3893787,
      "address": "FARMVILLE, VA, 23901",
      "population_count": 559,
      "facility_type": "DIGSA"
    },
    {
      "name": "ADAMS COUNTY DET CENTER",
      "latitude": 31.5604076,
      "longitude": -91.403171,
      "address": "NATCHEZ, MS, 39120",
      "population_count": 2166,
      "facility_type": "DIGSA"
    },